     2.11           Observation Data    GPS                 RINEX VERSION / TYPE
PPPLAB              IT LX               19-Jan-2012         PGM / RUN BY / DATE
A 9080                                                      MARKER NAME
PEDRO SILVA         IT SATLAB, Instituto Superior Tecnico   OBSERVER / AGENCY
ZXW.SENSOR          L1L2                V1.0                REC # / TYPE / VERS
531V2               AO32                                    ANT # / TYPE
  4918533.3200  -791212.5720  3969758.4510                  APPROX POSITION XYZ
        0.0000        0.0000        0.0000                  ANTENNA: DELTA H/E/N
     4    P1    L1    P2    L2                              # / TYPES OF OBSERV
  2011    11     3    15    28   35.0000000     GPS         TIME OF FIRST OBS
                                                            END OF HEADER
 11 11  3 15 28 35.0000000  0  6G01G03G11G19G20G32                                              
  20903850.000     -153745.500    20903850.000     -116544.500
  23258190.000      155085.800    23258190.000      108828.500
  20193360.000     -375512.200    20193350.000     -288698.000
  21159700.000      176473.300    21159700.000      120303.200
  21850690.000     -158861.600    21850690.000     -115328.000
  20521820.000     -714904.100    20521830.000      -80058.430
 11 11  3 15 28 36.0000000  0  6G01G03G11G19G20G32                                              
  20903640.000     -154816.500    20903650.000     -117379.000
  23258840.000      158529.600    23258850.000      111512.000
  20193300.000     -375800.400    20193300.000     -288922.600
  21160020.000      178193.800    21160020.000      121643.900
  21850140.000     -161742.900    21850140.000     -117573.200
  20521590.000     -716129.700    20521590.000      -81013.450
 11 11  3 15 28 37.0000000  0  6G01G03G11G19G20G32                                              
  20903440.000     -155887.700    20903440.000     -118213.800
  23259500.000      161973.000    23259500.000      114195.100
  20193250.000     -376088.700    20193240.000     -289147.200
  21160350.000      179914.200    21160350.000      122984.400
  21849590.000     -164624.500    21849600.000     -119818.500
  20521360.000     -717355.200    20521360.000      -81968.410
 11 11  3 15 28 38.0000000  0  6G01G03G11G19G20G32                                              
  20903230.000     -156959.500    20903240.000     -119048.900
  23260150.000      165415.700    23260160.000      116877.800
  20193190.000     -376377.400    20193190.000     -289372.200
  21160680.000      181634.100    21160680.000      124324.600
  21849040.000     -167506.400    21849050.000     -122064.200
  20521120.000     -718581.000    20521130.000      -82923.550
 11 11  3 15 28 39.0000000  0  6G01G03G11G19G20G32                                              
  20903030.000     -158032.500    20903030.000     -119885.000
  23260810.000      168857.300    23260810.000      119559.500
  20193140.000     -376667.300    20193130.000     -289598.100
  21161010.000      183353.000    21161010.000      125664.100
  21848500.000     -170389.500    21848500.000     -124310.700
  20520890.000     -719807.600    20520890.000      -83879.340
 11 11  3 15 28 40.0000000  0  6G01G03G11G19G20G32                                              
  20902830.000     -159106.600    20902830.000     -120722.000
  23261460.000      172297.600    23261470.000      122240.300
  20193080.000     -376958.200    20193080.000     -289824.800
  21161330.000      185071.000    21161330.000      127002.700
  21847950.000     -173273.600    21847950.000     -126558.000
  20520660.000     -721035.000    20520660.000      -84835.720
 11 11  3 15 28 41.0000000  0  6G01G03G11G19G20G32                                              
  20902620.000     -160180.500    20902630.000     -121558.800
  23262120.000      175738.100    23262120.000      124921.200
  20193030.000     -377248.800    20193020.000     -290051.200
  21161660.000      186789.300    21161660.000      128341.700
  21847400.000     -176157.300    21847400.000     -128805.100
  20520420.000     -722261.800    20520430.000      -85791.670
 11 11  3 15 28 42.0000000  0  6G01G03G11G19G20G32                                              
  20902420.000     -161254.700    20902420.000     -122395.800
  23262770.000      179178.200    23262780.000      127601.800
  20192970.000     -377539.600    20192970.000     -290277.800
  21161990.000      188507.500    21161990.000      129680.500
  21846850.000     -179041.200    21846850.000     -131052.300
  20520190.000     -723488.500    20520190.000      -86747.570
 11 11  3 15 28 43.0000000  0  6G01G03G11G19G20G32                                              
  20902210.000     -162329.300    20902220.000     -123233.200
  23263430.000      182617.800    23263430.000      130282.000
  20192910.000     -377830.700    20192910.000     -290504.700
  21162310.000      190225.400    21162310.000      131019.100
  21846300.000     -181925.400    21846300.000     -133299.700
  20519960.000     -724715.300    20519960.000      -87703.500
 11 11  3 15 28 44.0000000  0  6G01G03G11G19G20G32                                              
  20902010.000     -163404.000    20902010.000     -124070.600
  23264080.000      186057.300    23264090.000      132962.100
  20192860.000     -378121.800    20192860.000     -290731.500
  21162640.000      191943.400    21162640.000      132357.800
  21845750.000     -184809.600    21845750.000     -135547.100
  20519720.000     -725941.800    20519730.000      -88659.240
 11 11  3 15 28 45.0000000  0  6G01G03G11G19G20G32                                              
  20901800.000     -164478.300    20901810.000     -124907.800
  23264740.000      189497.100    23264740.000      135642.400
  20192800.000     -378412.500    20192800.000     -290958.000
  21162970.000      193661.900    21162970.000      133696.900
  21845200.000     -187693.300    21845210.000     -137794.200
  20519490.000     -727167.700    20519490.000      -89614.430
 11 11  3 15 28 46.0000000  0  6G01G03G11G19G20G32                                              
  20901600.000     -165552.800    20901600.000     -125745.000
  23265390.000      192936.700    23265400.000      138322.600
  20192750.000     -378703.100    20192750.000     -291184.400
  21163290.000      195380.400    21163290.000      135036.000
  21844650.000     -190577.000    21844660.000     -140041.200
  20519260.000     -728393.200    20519260.000      -90569.400
 11 11  3 15 28 47.0000000  0  6G01G03G11G19G20G32                                              
  20901400.000     -166627.200    20901400.000     -126582.200
  23266050.000      196376.200    23266050.000      141002.800
  20192690.000     -378993.600    20192690.000     -291410.800
  21163620.000      197099.100    21163620.000      136375.300
  21844110.000     -193460.500    21844110.000     -142288.100
  20519020.000     -729618.400    20519030.000      -91524.110
 11 11  3 15 28 48.0000000  0  6G01G03G11G19G20G32                                              
  20901190.000     -167701.400    20901190.000     -127419.300
  23266700.000      199816.000    23266700.000      143683.100
  20192640.000     -379283.800    20192640.000     -291637.000
  21163950.000      198818.200    21163950.000      137714.800
  21843560.000     -196343.700    21843560.000     -144534.800
  20518790.000     -730843.000    20518790.000      -92478.340
 11 11  3 15 28 49.0000000  0  6G01G03G11G19G20G32                                              
  20900990.000     -168776.000    20900990.000     -128256.600
  23267350.000      203255.300    23267360.000      146363.100
  20192580.000     -379574.300    20192580.000     -291863.300
  21164280.000      200537.100    21164280.000      139054.200
  21843010.000     -199227.200    21843010.000     -146781.600
  20518560.000     -732067.600    20518560.000      -93432.590
 11 11  3 15 28 50.0000000  0  6G01G03G11G19G20G32                                              
  20900780.000     -169850.300    20900790.000     -129093.700
  23268010.000      206694.800    23268010.000      149043.200
  20192530.000     -379864.400    20192530.000     -292089.400
  21164600.000      202256.400    21164600.000      140394.000
  21842460.000     -202110.200    21842460.000     -149028.100
  20518320.000     -733291.600    20518330.000      -94386.350
 11 11  3 15 28 51.0000000  0  6G01G03G11G19G20G32                                              
  20900580.000     -170923.700    20900580.000     -129930.100
  23268660.000      210135.100    23268670.000      151724.000
  20192470.000     -380153.500    20192470.000     -292314.600
  21164930.000      203976.800    21164930.000      141734.500
  21841910.000     -204992.200    21841910.000     -151273.900
  20518090.000     -734514.400    20518090.000      -95339.140
 11 11  3 15 28 52.0000000  0  6G01G03G11G19G20G32                                              
  20900370.000     -171997.000    20900380.000     -130766.500
  23269320.000      213575.500    23269320.000      154404.800
  20192420.000     -380442.400    20192420.000     -292539.800
  21165260.000      205697.400    21165260.000      143075.200
  21841360.000     -207874.100    21841360.000     -153519.400
  20517860.000     -735736.700    20517860.000      -96291.570
 11 11  3 15 28 53.0000000  0  6G01G03G11G19G20G32                                              
  20900170.000     -173070.100    20900170.000     -131602.600
  23269970.000      217016.100    23269980.000      157085.700
  20192360.000     -380731.000    20192360.000     -292764.600
  21165580.000      207418.400    21165590.000      144416.300
  21840810.000     -210755.500    21840820.000     -155764.700
  20517630.000     -736958.400    20517630.000      -97243.540
 11 11  3 15 28 54.0000000  0  6G01G03G11G19G20G32                                              
  20899960.000     -174142.800    20899970.000     -132438.500
  23270630.000      220456.900    23270630.000      159766.900
  20192310.000     -381019.200    20192310.000     -292989.100
  21165910.000      209140.000    21165910.000      145757.700
  21840270.000     -213636.500    21840270.000     -158009.600
  20517390.000     -738179.400    20517400.000      -98194.960
 11 11  3 15 28 55.0000000  0  6G01G03G11G19G20G32                                              
  20899760.000     -175215.900    20899760.000     -133274.700
  23271280.000      223897.400    23271290.000      162447.800
  20192250.000     -381307.500    20192250.000     -293213.900
  21166240.000      210861.300    21166240.000      147099.000
  21839720.000     -216517.700    21839720.000     -160254.700
  20517160.000     -739400.400    20517160.000      -99146.390
 11 11  3 15 28 56.0000000  0  6G01G03G11G19G20G32                                              
  20899560.000     -176288.900    20899560.000     -134110.800
  23271940.000      227337.800    23271940.000      165128.600
  20192200.000     -381595.700    20192200.000     -293438.400
  21166570.000      212582.900    21166570.000      148440.500
  21839170.000     -219398.700    21839170.000     -162499.600
  20516930.000     -740620.900    20516930.000     -100097.400
 11 11  3 15 28 57.0000000  0  6G01G03G11G19G20G32                                              
  20899350.000     -177361.000    20899360.000     -134946.200
  23272590.000      230779.000    23272600.000      167810.100
  20192140.000     -381883.000    20192140.000     -293662.300
  21166900.000      214305.400    21166900.000      149782.700
  21838620.000     -222278.700    21838620.000     -164743.800
  20516700.000     -741840.200    20516700.000     -101047.600
 11 11  3 15 28 58.0000000  0  6G01G03G11G19G20G32                                              
  20899150.000     -178432.900    20899150.000     -135781.400
  23273250.000      234220.500    23273250.000      170491.700
  20192090.000     -382169.900    20192090.000     -293885.800
  21167220.000      216028.400    21167220.000      151125.300
  21838070.000     -225158.400    21838080.000     -166987.700
  20516470.000     -743058.900    20516470.000     -101997.200
 11 11  3 15 28 59.0000000  0  6G01G03G11G19G20G32                                              
  20898940.000     -179504.200    20898950.000     -136616.200
  23273900.000      237662.500    23273910.000      173173.800
  20192030.000     -382456.100    20192030.000     -294108.800
  21167550.000      217752.100    21167550.000      152468.500
  21837530.000     -228037.300    21837530.000     -169231.000
  20516230.000     -744276.700    20516240.000     -102946.100
 11 11  3 15 29  0.0000000  0  6G01G03G11G19G20G32                                              
  20898740.000     -180575.200    20898740.000     -137450.700
  23274560.000      241104.600    23274560.000      175856.000
  20191980.000     -382741.900    20191980.000     -294331.500
  21167880.000      219476.300    21167880.000      153812.000
  21836980.000     -230915.900    21836980.000     -171474.000
  20516000.000     -745493.800    20516000.000     -103894.600
 11 11  3 15 29  1.0000000  0  8G01G03G11G14G19G20G22G32                                        
  20898540.000     -181646.200    20898540.000     -138285.300
  23275210.000      244546.700    23275220.000      178538.100
  20191930.000     -383027.600    20191920.000     -294554.200
  23565890.000     -116972.700    23565890.000      -88822.600
  21168210.000      221200.500    21168210.000      155155.600
  21836430.000     -233794.300    21836430.000     -173717.000
  24499210.000       78762.270    24499210.000       22739.150
  20515770.000     -746710.700    20515770.000     -104842.700
 11 11  3 15 29  2.0000000  0  8G01G03G11G14G19G20G22G32                                        
  20898330.000     -182716.900    20898340.000     -139119.600
  23275870.000      247989.100    23275870.000      181220.500
  20191870.000     -383312.900    20191870.000     -294776.500
  23565860.000     -117114.100    23565860.000      -88932.710
  21168540.000      222925.300    21168540.000      156499.600
  21835880.000     -236672.300    21835880.000     -175959.600
  24499840.000       82028.100    24499840.000       25283.950
  20515540.000     -747926.800    20515540.000     -105790.300
 11 11  3 15 29  3.0000000  0  8G01G03G11G14G19G20G22G32                                        
  20898130.000     -183787.200    20898130.000     -139953.600
  23276520.000      251431.800    23276530.000      183903.100
  20191820.000     -383597.800    20191820.000     -294998.500
  23565830.000     -117254.700    23565840.000      -89042.300
  21168860.000      224650.700    21168860.000      157844.000
  21835340.000     -239549.800    21835340.000     -178201.800
  24500460.000       85294.140    24500460.000       27828.920
  20515310.000     -749142.200    20515310.000     -106737.400
 11 11  3 15 29  4.0000000  0  8G01G03G11G14G19G20G22G32                                        
  20897930.000     -184857.200    20897930.000     -140787.400
  23277180.000      254874.800    23277180.000      186585.900
  20191760.000     -383882.200    20191760.000     -295220.100
  23565810.000     -117394.600    23565810.000      -89151.340
  21169190.000      226376.500    21169190.000      159188.800
  21834790.000     -242426.800    21834790.000     -180443.600
  24501080.000       88560.420    24501080.000       30374.070
  20515080.000     -750356.800    20515080.000     -107683.900
 11 11  3 15 29  5.0000000  0  8G01G03G11G14G19G20G22G32                                        
  20897720.000     -185927.000    20897730.000     -141621.000
  23277830.000      258317.800    23277840.000      189268.800
  20191710.000     -384166.300    20191710.000     -295441.500
  23565780.000     -117534.100    23565780.000      -89260.020
  21169520.000      228102.600    21169520.000      160533.800
  21834240.000     -245303.500    21834240.000     -182685.200
  24501700.000       91826.680    24501700.000       32919.210
  20514850.000     -751571.000    20514850.000     -108630.000
 11 11  3 15 29  6.0000000  0  8G01G03G11G14G19G20G22G32                                        
  20897520.000     -186996.500    20897520.000     -142454.400
  23278490.000      261761.100    23278490.000      191951.900
  20191650.000     -384450.000    20191650.000     -295662.600
  23565750.000     -117672.900    23565760.000      -89368.150
  21169850.000      229829.200    21169850.000      161879.200
  21833690.000     -248179.800    21833700.000     -184926.500
  24502320.000       95093.150    24502320.000       35464.510
  20514620.000     -752784.500    20514620.000     -109575.600
 11 11  3 15 29  7.0000000  0  8G01G03G11G14G19G20G22G32                                        
  20897320.000     -188065.200    20897320.000     -143287.100
  23279140.000      265205.100    23279150.000      194635.500
  20191600.000     -384732.900    20191600.000     -295883.000
  23565730.000     -117810.600    23565730.000      -89475.450
  21170180.000      231556.700    21170180.000      163225.300
  21833150.000     -251055.200    21833150.000     -187167.000
  24502940.000       98360.220    24502940.000       38010.280
  20514380.000     -753996.800    20514390.000     -110520.300
 11 11  3 15 29  8.0000000  0  8G01G03G11G14G19G20G22G32                                        
  20897110.000     -189133.600    20897120.000     -144119.700
  23279800.000      268649.400    23279800.000      197319.400
  20191550.000     -385015.300    20191550.000     -296103.000
  23565700.000     -117947.600    23565710.000      -89582.230
  21170510.000      233284.700    21170510.000      164571.800
  21832600.000     -253930.200    21832600.000     -189407.300
  24503570.000      101627.500    24503570.000       40556.220
  20514150.000     -755208.500    20514160.000     -111464.400
 11 11  3 15 29  9.0000000  0  8G01G03G11G14G19G20G22G32                                        
  20896910.000     -190201.900    20896910.000     -144952.100
  23280450.000      272093.700    23280460.000      200003.300
  20191490.000     -385297.600    20191490.000     -296323.000
  23565680.000     -118084.200    23565680.000      -89688.670
  21170840.000      235013.000    21170840.000      165918.500
  21832050.000     -256804.900    21832050.000     -191647.300
  24504190.000      104894.700    24504190.000       43102.110
  20513920.000     -756419.800    20513930.000     -112408.200
 11 11  3 15 29 10.0000000  0  8G01G03G11G14G19G20G22G32                                        
  20896710.000     -191270.100    20896710.000     -145784.400
  23281110.000      275538.100    23281110.000      202687.200
  20191440.000     -385579.600    20191440.000     -296542.700
  23565650.000     -118220.300    23565650.000      -89794.740
  21171160.000      236741.500    21171170.000      167265.400
  21831500.000     -259679.400    21831510.000     -193887.200
  24504810.000      108162.000    24504810.000       45648.000
  20513690.000     -757630.500    20513700.000     -113351.700
 11 11  3 15 29 11.0000000  0  8G01G03G11G14G19G20G22G32                                        
  20896500.000     -192338.400    20896510.000     -146616.800
  23281770.000      278982.300    23281770.000      205371.000
  20191390.000     -385861.600    20191380.000     -296762.500
  23565620.000     -118356.200    23565630.000      -89900.630
  21171490.000      238470.100    21171490.000      168612.400
  21830960.000     -262553.900    21830960.000     -196127.000
  24505430.000      111429.000    24505430.000       48193.710
  20513460.000     -758841.000    20513460.000     -114294.900
 11 11  3 15 29 12.0000000  0  8G01G03G11G14G19G20G22G32                                        
  20896300.000     -193406.200    20896300.000     -147448.900
  23282420.000      282427.000    23282420.000      208055.100
  20191330.000     -386143.000    20191330.000     -296981.800
  23565600.000     -118491.400    23565600.000      -90005.910
  21171820.000      240199.300    21171820.000      169959.800
  21830410.000     -265427.800    21830410.000     -198366.400
  24506050.000      114696.200    24506050.000       50739.640
  20513230.000     -760050.700    20513230.000     -115237.500
 11 11  3 15 29 13.0000000  0  8G01G03G11G14G19G20G22G32                                        
  20896100.000     -194474.000    20896100.000     -148281.000
  23283080.000      285871.500    23283080.000      210739.100
  20191280.000     -386424.400    20191280.000     -297201.100
  23565570.000     -118626.200    23565580.000      -90110.970
  21172150.000      241928.600    21172150.000      171307.300
  21829860.000     -268301.600    21829870.000     -200605.700
  24506670.000      117963.300    24506680.000       53285.430
  20513000.000     -761260.000    20513000.000     -116179.900
 11 11  3 15 29 14.0000000  0  8G01G03G11G14G19G20G22G32                                        
  20895890.000     -195541.600    20895900.000     -149112.900
  23283730.000      289316.200    23283740.000      213423.300
  20191230.000     -386705.400    20191220.000     -297420.000
  23565550.000     -118760.400    23565550.000      -90215.520
  21172480.000      243658.500    21172480.000      172655.200
  21829320.000     -271174.900    21829320.000     -202844.700
  24507300.000      121230.600    24507300.000       55831.370
  20512770.000     -762468.700    20512770.000     -117121.700
 11 11  3 15 29 15.0000000  0  8G01G03G11G14G19G20G22G32                                        
  20895690.000     -196609.300    20895690.000     -149944.800
  23284390.000      292760.800    23284390.000      216107.400
  20191170.000     -386986.500    20191170.000     -297639.000
  23565520.000     -118894.300    23565530.000      -90319.920
  21172810.000      245388.300    21172810.000      174003.100
  21828770.000     -274048.300    21828770.000     -205083.700
  24507920.000      124497.600    24507920.000       58377.070
  20512540.000     -763677.200    20512540.000     -118063.400
 11 11  3 15 29 16.0000000  0  8G01G03G11G14G19G20G22G32                                        
  20895490.000     -197677.100    20895490.000     -150776.900
  23285040.000      296205.100    23285050.000      218791.300
  20191120.000     -387267.500    20191120.000     -297858.000
  23565500.000     -119028.100    23565500.000      -90424.150
  21173140.000      247118.100    21173140.000      175351.100
  21828220.000     -276921.700    21828230.000     -207322.700
  24508540.000      127764.300    24508540.000       60922.570
  20512310.000     -764885.500    20512310.000     -119004.900
 11 11  3 15 29 17.0000000  0  8G01G03G11G14G19G20G22G32                                        
  20895280.000     -198744.800    20895290.000     -151608.900
  23285700.000      299649.500    23285700.000      221475.200
  20191070.000     -387548.400    20191060.000     -298076.900
  23565470.000     -119161.500    23565470.000      -90528.060
  21173470.000      248848.200    21173470.000      176699.200
  21827680.000     -279794.900    21827680.000     -209561.500
  24509160.000      131031.000    24509160.000       63468.030
  20512080.000     -766093.300    20512080.000     -119946.100
 11 11  3 15 29 18.0000000  0  8G01G03G11G14G19G20G22G32                                        
  20895080.000     -199811.700    20895080.000     -152440.200
  23286350.000      303094.700    23286360.000      224159.800
  20191010.000     -387828.300    20191010.000     -298295.000
  23565450.000     -119293.600    23565450.000      -90631.050
  21173800.000      250579.300    21173800.000      178048.100
  21827130.000     -282667.100    21827130.000     -211799.600
  24509780.000      134298.400    24509780.000       66014.050
  20511850.000     -767299.900    20511860.000     -120886.300
 11 11  3 15 29 19.0000000  0  8G01G03G11G14G19G20G22G32                                        
  20894880.000     -200878.000    20894880.000     -153271.100
  23287010.000      306540.400    23287010.000      226844.700
  20190960.000     -388107.600    20190960.000     -298512.600
  23565420.000     -119424.900    23565420.000      -90733.320
  21174130.000      252311.100    21174130.000      179397.600
  21826580.000     -285538.600    21826590.000     -214037.100
  24510400.000      137566.200    24510410.000       68560.410
  20511620.000     -768505.600    20511630.000     -121825.700
 11 11  3 15 29 20.0000000  0  8G01G03G11G14G19G20G22G32                                        
  20894670.000     -201943.700    20894680.000     -154101.500
  23287670.000      309986.600    23287670.000      229530.100
  20190910.000     -388386.100    20190900.000     -298729.600
  23565400.000     -119555.200    23565400.000      -90834.880
  21174460.000      254043.600    21174460.000      180747.600
  21826040.000     -288409.400    21826040.000     -216274.100
  24511030.000      140834.500    24511030.000       71107.100
  20511390.000     -769710.300    20511400.000     -122764.500
 11 11  3 15 29 21.0000000  0  8G01G03G11G14G19G20G22G32                                        
  20894470.000     -203009.300    20894480.000     -154931.900
  23288320.000      313432.800    23288320.000      232215.400
  20190850.000     -388664.500    20190850.000     -298946.600
  23565370.000     -119685.200    23565380.000      -90936.140
  21174790.000      255776.400    21174790.000      182097.800
  21825490.000     -291280.000    21825490.000     -218511.000
  24511650.000      144102.700    24511650.000       73653.720
  20511170.000     -770914.600    20511170.000     -123702.900
 11 11  3 15 29 22.0000000  0  8G01G03G11G14G19G20G22G32                                        
  20894270.000     -204075.200    20894270.000     -155762.400
  23288980.000      316878.700    23288980.000      234900.500
  20190800.000     -388943.100    20190800.000     -299163.600
  23565350.000     -119815.000    23565350.000      -91037.310
  21175120.000      257509.100    21175120.000      183447.900
  21824950.000     -294150.700    21824950.000     -220747.900
  24512270.000      147370.400    24512270.000       76200.030
  20510940.000     -772118.800    20510940.000     -124641.300
 11 11  3 15 29 23.0000000  0  8G01G03G11G14G19G20G22G32                                        
  20894070.000     -205140.600    20894070.000     -156592.600
  23289630.000      320325.000    23289640.000      237586.000
  20190750.000     -389221.000    20190750.000     -299380.200
  23565320.000     -119944.000    23565330.000      -91137.790
  21175450.000      259242.500    21175450.000      184798.600
  21824400.000     -297020.800    21824400.000     -222984.300
  24512890.000      150638.600    24512890.000       78746.690
  20510710.000     -773322.100    20510710.000     -125578.900
 11 11  3 15 29 24.0000000  0  8G01G03G11G14G19G20G22G32                                        
  20893860.000     -206205.600    20893870.000     -157422.500
  23290290.000      323771.600    23290290.000      240271.600
  20190690.000     -389498.500    20190690.000     -299596.400
  23565300.000     -120072.300    23565300.000      -91237.800
  21175780.000      260976.300    21175780.000      186149.700
  21823850.000     -299890.400    21823850.000     -225220.400
  24513510.000      153907.000    24513520.000       81293.460
  20510480.000     -774524.700    20510480.000     -126516.000
 11 11  3 15 29 25.0000000  0  8G01G03G11G14G19G20G22G32                                        
  20893660.000     -207270.200    20893660.000     -158252.000
  23290940.000      327218.600    23290950.000      242957.600
  20190640.000     -389775.400    20190640.000     -299812.200
  23565270.000     -120199.800    23565280.000      -91337.150
  21176110.000      262710.800    21176110.000      187501.200
  21823310.000     -302759.500    21823310.000     -227456.000
  24514140.000      157175.700    24514140.000       83840.490
  20510250.000     -775726.500    20510250.000     -127452.500
 11 11  3 15 29 26.0000000  0  8G01G03G11G14G19G20G22G32                                        
  20893460.000     -208334.400    20893460.000     -159081.300
  23291600.000      330666.000    23291600.000      245643.800
  20190590.000     -390051.900    20190590.000     -300027.600
  23565250.000     -120326.600    23565250.000      -91435.980
  21176440.000      264445.800    21176440.000      188853.100
  21822760.000     -305628.000    21822760.000     -229691.200
  24514760.000      160444.600    24514760.000       86387.680
  20510020.000     -776927.600    20510020.000     -128388.400
 11 11  3 15 29 27.0000000  0  8G01G03G11G14G19G20G22G32                                        
  20893260.000     -209398.400    20893260.000     -159910.300
  23292260.000      334113.400    23292260.000      248330.200
  20190540.000     -390328.000    20190530.000     -300242.800
  23565230.000     -120452.900    23565230.000      -91534.350
  21176770.000      266181.200    21176770.000      190205.400
  21822220.000     -308496.200    21822220.000     -231926.200
  24515380.000      163713.600    24515380.000       88934.940
  20509790.000     -778128.100    20509790.000     -129323.800
 11 11  3 15 29 28.0000000  0  8G01G03G11G14G19G20G22G32                                        
  20893050.000     -210461.900    20893060.000     -160739.100
  23292910.000      337561.300    23292920.000      251016.800
  20190480.000     -390603.700    20190480.000     -300457.600
  23565200.000     -120578.400    23565210.000      -91632.130
  21177100.000      267917.100    21177100.000      191558.100
  21821670.000     -311363.900    21821670.000     -234160.700
  24516000.000      166982.900    24516000.000       91482.420
  20509560.000     -779327.800    20509570.000     -130258.700
 11 11  3 15 29 29.0000000  0  8G01G03G11G14G19G20G22G32                                        
  20892850.000     -211525.200    20892860.000     -161567.600
  23293570.000      341009.300    23293570.000      253703.500
  20190430.000     -390878.900    20190430.000     -300672.100
  23565180.000     -120703.300    23565180.000      -91729.430
  21177430.000      269653.500    21177430.000      192911.100
  21821120.000     -314231.100    21821130.000     -236394.900
  24516620.000      170252.300    24516630.000       94030.000
  20509340.000     -780526.900    20509340.000     -131193.000
 11 11  3 15 29 30.0000000  0  8G01G03G11G14G19G20G22G32                                        
  20892650.000     -212588.600    20892650.000     -162396.200
  23294230.000      344457.200    23294230.000      256390.200
  20190380.000     -391154.100    20190380.000     -300886.500
  23565150.000     -120827.900    23565160.000      -91826.520
  21177760.000      271390.000    21177760.000      194264.200
  21820580.000     -317098.300    21820580.000     -238629.100
  24517250.000      173521.500    24517250.000       96577.440
  20509110.000     -781725.700    20509110.000     -132127.100
 11 11  3 15 29 31.0000000  0  9G01G03G06G11G14G19G20G22G32                                     
  20892450.000     -213651.800    20892450.000     -163224.700
  23294880.000      347905.200    23294880.000      259076.900
  24446400.000       52732.930    24446410.000       37195.120
  20190330.000     -391429.100    20190330.000     -301100.800
  23565130.000     -120952.000    23565130.000      -91923.280
  21178090.000      273126.700    21178090.000      195617.500
  21820030.000     -319965.300    21820030.000     -240863.100
  24517870.000      176790.600    24517870.000       99124.850
  20508880.000     -782924.000    20508880.000     -133060.900
 11 11  3 15 29 32.0000000  0  9G01G03G06G11G14G19G20G22G32                                     
  20892240.000     -214715.200    20892250.000     -164053.300
  23295540.000      351352.900    23295540.000      261763.400
  24447010.000       55964.070    24447020.000       39712.870
  20190270.000     -391704.200    20190270.000     -301315.200
  23565110.000     -121076.000    23565110.000      -92019.920
  21178420.000      274863.400    21178420.000      196970.800
  21819490.000     -322832.300    21819490.000     -243097.100
  24518490.000      180059.500    24518490.000      101672.000
  20508650.000     -784122.200    20508650.000     -133994.500
 11 11  3 15 29 33.0000000  0  9G01G03G06G11G14G19G20G22G32                                     
  20892040.000     -215778.800    20892050.000     -164882.100
  23296190.000      354800.400    23296200.000      264449.800
  24447630.000       59194.970    24447640.000       42230.440
  20190220.000     -391979.400    20190220.000     -301529.600
  23565080.000     -121199.900    23565090.000      -92116.400
  21178750.000      276600.200    21178750.000      198324.100
  21818940.000     -325699.300    21818940.000     -245331.200
  24519110.000      183328.000    24519110.000      104218.900
  20508420.000     -785320.200    20508430.000     -134928.000
 11 11  3 15 29 34.0000000  0  9G01G03G06G11G14G19G20G22G32                                     
  20891840.000     -216841.900    20891840.000     -165710.500
  23296850.000      358248.200    23296850.000      267136.400
  24448240.000       62426.220    24448250.000       44748.270
  20190170.000     -392254.000    20190170.000     -301743.500
  23565060.000     -121322.900    23565060.000      -92212.280
  21179080.000      278337.500    21179080.000      199677.800
  21818400.000     -328565.800    21818400.000     -247564.800
  24519730.000      186596.900    24519740.000      106766.100
  20508200.000     -786517.300    20508200.000     -135860.900
 11 11  3 15 29 35.0000000  0  9G01G03G06G11G14G19G20G22G32                                     
  20891640.000     -217904.900    20891640.000     -166538.800
  23297510.000      361696.200    23297510.000      269823.200
  24448860.000       65657.540    24448870.000       47266.170
  20190120.000     -392528.300    20190120.000     -301957.300
  23565040.000     -121445.400    23565040.000      -92307.750
  21179410.000      280075.100    21179410.000      201031.800
  21817850.000     -331432.000    21817850.000     -249798.200
  24520360.000      189865.800    24520360.000      109313.300
  20507970.000     -787713.900    20507970.000     -136793.300
 11 11  3 15 29 36.0000000  0  9G01G03G06G11G14G19G20G22G32                                     
  20891440.000     -218967.800    20891440.000     -167367.100
  23298160.000      365144.100    23298170.000      272509.800
  24449470.000       68888.730    24449480.000       49783.960
  20190070.000     -392802.500    20190060.000     -302171.000
  23565010.000     -121567.700    23565020.000      -92402.990
  21179740.000      281812.900    21179740.000      202385.900
  21817310.000     -334298.100    21817310.000     -252031.500
  24520980.000      193134.500    24520980.000      111860.300
  20507740.000     -788910.200    20507740.000     -137725.500
 11 11  3 15 29 37.0000000  0  9G01G03G06G11G14G19G20G22G32                                     
  20891230.000     -220030.700    20891240.000     -168195.200
  23298820.000      368592.100    23298820.000      275196.600
  24450090.000       72120.010    24450090.000       52301.810
  20190010.000     -393076.500    20190010.000     -302384.500
  23564990.000     -121689.400    23564990.000      -92497.840
  21180070.000      283551.000    21180070.000      203740.300
  21816760.000     -337163.800    21816760.000     -254264.500
  24521600.000      196403.200    24521600.000      114407.400
  20507510.000     -790106.000    20507520.000     -138657.200
 11 11  3 15 29 38.0000000  0  9G01G03G06G11G14G19G20G22G32                                     
  20891030.000     -221092.900    20891030.000     -169022.900
  23299470.000      372040.600    23299480.000      277883.700
  24450700.000       75351.750    24450710.000       54820.030
  20189960.000     -393349.900    20189960.000     -302597.500
  23564970.000     -121810.200    23564970.000      -92591.970
  21180400.000      285289.800    21180400.000      205095.200
  21816210.000     -340028.900    21816220.000     -256497.100
  24522220.000      199672.400    24522230.000      116954.800
  20507290.000     -791300.800    20507290.000     -139588.200
 11 11  3 15 29 39.0000000  0  9G01G03G06G11G14G19G20G22G32                                     
  20890830.000     -222154.600    20890830.000     -169850.300
  23300130.000      375489.500    23300130.000      280571.200
  24451320.000       78583.890    24451320.000       57338.560
  20189910.000     -393622.600    20189910.000     -302810.000
  23564940.000     -121930.200    23564950.000      -92685.470
  21180730.000      287029.300    21180740.000      206450.600
  21815670.000     -342893.400    21815670.000     -258729.100
  24522850.000      202941.900    24522850.000      119502.400
  20507060.000     -792494.800    20507060.000     -140518.600
 11 11  3 15 29 40.0000000  0  9G01G03G06G11G14G19G20G22G32                                     
  20890630.000     -223216.100    20890630.000     -170677.400
  23300790.000      378938.600    23300790.000      283258.800
  24451930.000       81816.220    24451940.000       59857.240
  20189860.000     -393895.000    20189860.000     -303022.300
  23564920.000     -122049.600    23564930.000      -92778.480
  21181070.000      288769.200    21181070.000      207806.400
  21815120.000     -345757.500    21815130.000     -260960.800
  24523470.000      206211.600    24523470.000      122050.200
  20506830.000     -793688.100    20506830.000     -141448.500
 11 11  3 15 29 41.0000000  0  9G01G03G06G11G14G19G20G22G32                                     
  20890420.000     -224277.400    20890430.000     -171504.400
  23301440.000      382387.800    23301450.000      285946.400
  24452550.000       85048.560    24452560.000       62375.920
  20189810.000     -394167.200    20189800.000     -303234.300
  23564900.000     -122168.500    23564900.000      -92871.150
  21181400.000      290509.300    21181400.000      209162.400
  21814580.000     -348621.300    21814580.000     -263192.400
  24524090.000      209481.200    24524090.000      124598.000
  20506600.000     -794881.000    20506610.000     -142378.000
 11 11  3 15 29 42.0000000  0  9G01G03G06G11G14G19G20G22G32                                     
  20890220.000     -225338.800    20890230.000     -172331.400
  23302100.000      385836.900    23302100.000      288634.000
  24453160.000       88280.780    24453170.000       64894.510
  20189750.000     -394439.200    20189750.000     -303446.300
  23564880.000     -122287.100    23564880.000      -92963.550
  21181730.000      292249.600    21181730.000      210518.400
  21814030.000     -351485.000    21814040.000     -265423.900
  24524710.000      212750.700    24524710.000      127145.600
  20506380.000     -796073.600    20506380.000     -143307.300
 11 11  3 15 29 43.0000000  0  9G01G03G06G11G14G19G20G22G32                                     
  20890020.000     -226399.600    20890020.000     -173158.000
  23302760.000      389286.600    23302760.000      291322.100
  24453780.000       91513.520    24453790.000       67413.510
  20189700.000     -394710.600    20189700.000     -303657.800
  23564850.000     -122404.700    23564860.000      -93055.220
  21182060.000      293990.700    21182060.000      211875.100
  21813490.000     -354348.000    21813490.000     -267654.800
  24525330.000      216020.600    24525340.000      129693.600
  20506150.000     -797265.100    20506150.000     -144235.700
 11 11  3 15 29 44.0000000  0  9G01G03G06G11G14G19G20G22G32                                     
  20889820.000     -227460.000    20889820.000     -173984.300
  23303410.000      392736.400    23303420.000      294010.300
  24454400.000       94746.460    24454400.000       69932.660
  20189650.000     -394981.600    20189650.000     -303868.900
  23564830.000     -122521.700    23564840.000      -93146.390
  21182390.000      295732.200    21182390.000      213232.100
  21812950.000     -357210.600    21812950.000     -269885.300
  24525960.000      219290.700    24525960.000      132241.800
  20505920.000     -798456.000    20505930.000     -145163.700
 11 11  3 15 29 45.0000000  0  9G01G03G06G11G14G19G20G22G32                                     
  20889620.000     -228520.500    20889620.000     -174810.700
  23304070.000      396186.200    23304070.000      296698.400
  24455010.000       97979.280    24455020.000       72451.720
  20189600.000     -395252.500    20189600.000     -304080.000
  23564810.000     -122638.400    23564810.000      -93237.320
  21182720.000      297473.900    21182720.000      214589.300
  21812400.000     -360073.000    21812400.000     -272115.800
  24526580.000      222560.600    24526580.000      134789.700
  20505700.000     -799646.600    20505700.000     -146091.400
 11 11  3 15 29 46.0000000  0  9G01G03G06G11G14G19G20G22G32                                     
  20889420.000     -229580.700    20889420.000     -175636.800
  23304730.000      399636.200    23304730.000      299386.700
  24455630.000      101212.300    24455630.000       74970.900
  20189550.000     -395523.000    20189550.000     -304290.800
  23564790.000     -122754.500    23564790.000      -93327.790
  21183050.000      299215.900    21183050.000      215946.700
  21811860.000     -362935.100    21811860.000     -274346.000
  24527200.000      225830.700    24527200.000      137337.800
  20505470.000     -800836.500    20505470.000     -147018.700
 11 11  3 15 29 47.0000000  0  9G01G03G06G11G14G19G20G22G32                                     
  20889210.000     -230640.200    20889220.000     -176462.400
  23305380.000      403086.800    23305390.000      302075.500
  24456240.000      104445.800    24456250.000       77490.550
  20189500.000     -395792.700    20189490.000     -304501.000
  23564770.000     -122869.600    23564770.000      -93417.460
  21183390.000      300958.800    21183390.000      217304.800
  21811310.000     -365796.300    21811310.000     -276575.500
  24527820.000      229101.300    24527830.000      139886.400
  20505250.000     -802025.500    20505250.000     -147945.100
 11 11  3 15 29 48.0000000  0  9G01G03G06G11G14G19G20G22G32                                     
  20889010.000     -231699.300    20889020.000     -177287.700
  23306040.000      406537.800    23306040.000      304764.600
  24456860.000      107679.800    24456860.000       80010.490
  20189440.000     -396061.900    20189440.000     -304710.700
  23564740.000     -122983.900    23564750.000      -93506.500
  21183720.000      302702.400    21183720.000      218663.400
  21810770.000     -368657.000    21810770.000     -278804.600
  24528450.000      232372.200    24528450.000      142435.100
  20505020.000     -803213.600    20505020.000     -148870.900
 11 11  3 15 29 49.0000000  0  9G01G03G06G11G14G19G20G22G32                                     
  20888810.000     -232758.500    20888810.000     -178113.000
  23306700.000      409988.600    23306700.000      307453.500
  24457470.000      110913.500    24457480.000       82530.220
  20189390.000     -396331.100    20189390.000     -304920.500
  23564720.000     -123098.000    23564730.000      -93595.400
  21184050.000      304445.900    21184050.000      220022.000
  21810220.000     -371517.700    21810220.000     -281033.700
  24529070.000      235642.800    24529070.000      144983.600
  20504790.000     -804401.400    20504790.000     -149796.500
 11 11  3 15 29 50.0000000  0  9G01G03G06G11G14G19G20G22G32                                     
  20888610.000     -233817.400    20888610.000     -178938.100
  23307350.000      413439.700    23307360.000      310142.600
  24458090.000      114147.400    24458090.000       85050.160
  20189340.000     -396599.900    20189340.000     -305129.900
  23564700.000     -123211.400    23564700.000      -93683.760
  21184380.000      306189.900    21184380.000      221381.000
  21809680.000     -374377.900    21809680.000     -283262.500
  24529690.000      238913.600    24529690.000      147532.300
  20504570.000     -805588.600    20504570.000     -150721.600
 11 11  3 15 29 51.0000000  0  9G01G03G06G11G14G19G20G22G32                                     
  20888410.000     -234875.800    20888410.000     -179762.900
  23308010.000      416891.100    23308010.000      312832.000
  24458700.000      117381.700    24458710.000       87570.370
  20189290.000     -396868.100    20189290.000     -305338.900
  23564680.000     -123324.000    23564680.000      -93771.520
  21184710.000      307934.600    21184710.000      222740.500
  21809130.000     -377237.600    21809140.000     -285490.800
  24530310.000      242184.700    24530320.000      150081.300
  20504340.000     -806775.000    20504340.000     -151646.000
 11 11  3 15 29 52.0000000  0  9G01G03G06G11G14G19G20G22G32                                     
  20888210.000     -235934.000    20888210.000     -180587.500
  23308670.000      420342.700    23308670.000      315521.600
  24459320.000      120616.100    24459320.000       90090.640
  20189240.000     -397136.000    20189240.000     -305547.700
  23564660.000     -123436.100    23564660.000      -93858.850
  21185040.000      309679.600    21185050.000      224100.200
  21808590.000     -380096.900    21808590.000     -287718.800
  24530930.000      245455.900    24530940.000      152630.200
  20504120.000     -807960.800    20504120.000     -152570.100
 11 11  3 15 29 53.0000000  0  9G01G03G06G11G14G19G20G22G32                                     
  20888010.000     -236992.000    20888010.000     -181411.800
  23309320.000      423794.500    23309330.000      318211.300
  24459930.000      123850.700    24459940.000       92611.090
  20189190.000     -397403.600    20189190.000     -305756.200
  23564640.000     -123547.500    23564640.000      -93945.690
  21185380.000      311425.000    21185380.000      225460.300
  21808050.000     -382955.800    21808050.000     -289946.500
  24531560.000      248727.200    24531560.000      155179.300
  20503890.000     -809146.000    20503890.000     -153493.600
 11 11  3 15 29 54.0000000  0  9G01G03G06G11G14G19G20G22G32                                     
  20887800.000     -238049.400    20887810.000     -182235.800
  23309980.000      427246.800    23309980.000      320901.400
  24460550.000      127085.700    24460550.000       95131.860
  20189140.000     -397670.500    20189140.000     -305964.200
  23564620.000     -123658.100    23564620.000      -94031.850
  21185710.000      313171.100    21185710.000      226820.900
  21807500.000     -385814.100    21807500.000     -292173.800
  24532180.000      251999.000    24532180.000      157728.700
  20503660.000     -810330.300    20503670.000     -154416.400
 11 11  3 15 29 55.0000000  0  9G01G03G06G11G14G19G20G22G32                                     
  20887600.000     -239106.700    20887610.000     -183059.700
  23310640.000      430699.100    23310640.000      323591.500
  24461170.000      130320.700    24461170.000       97652.630
  20189090.000     -397937.200    20189090.000     -306172.000
  23564590.000     -123768.300    23564600.000      -94117.680
  21186040.000      314917.500    21186040.000      228181.700
  21806960.000     -388672.100    21806960.000     -294400.800
  24532800.000      255270.600    24532810.000      160278.000
  20503440.000     -811514.200    20503440.000     -155338.900
 11 11  3 15 29 56.0000000  0  9G01G03G06G11G14G19G20G22G32                                     
  20887400.000     -240163.900    20887410.000     -183883.500
  23311290.000      434151.300    23311300.000      326281.500
  24461780.000      133555.700    24461790.000      100173.400
  20189040.000     -398203.700    20189040.000     -306379.700
  23564570.000     -123878.000    23564580.000      -94203.210
  21186370.000      316664.100    21186370.000      229542.700
  21806410.000     -391530.000    21806420.000     -296627.700
  24533430.000      258542.200    24533430.000      162827.300
  20503210.000     -812697.600    20503220.000     -156261.000
 11 11  3 15 29 57.0000000  0  9G01G03G06G11G14G19G20G22G32                                     
  20887200.000     -241220.800    20887200.000     -184707.000
  23311950.000      437603.900    23311950.000      328971.800
  24462400.000      136790.900    24462400.000      102694.300
  20188990.000     -398469.800    20188990.000     -306587.000
  23564550.000     -123987.100    23564560.000      -94288.200
  21186710.000      318411.200    21186710.000      230904.000
  21805870.000     -394387.400    21805870.000     -298854.200
  24534050.000      261814.000    24534050.000      165376.800
  20502990.000     -813880.300    20502990.000     -157182.600
 11 11  3 15 29 58.0000000  0  9G01G03G06G11G14G19G20G22G32                                     
  20887000.000     -242277.300    20887000.000     -185530.200
  23312610.000      441056.900    23312610.000      331662.500
  24463010.000      140026.500    24463020.000      105215.500
  20188940.000     -398735.400    20188930.000     -306794.000
  23564530.000     -124095.300    23564540.000      -94372.550
  21187040.000      320158.900    21187040.000      232265.900
  21805330.000     -397244.100    21805330.000     -301080.300
  24534670.000      265086.100    24534670.000      167926.500
  20502760.000     -815062.200    20502770.000     -158103.600
 11 11  3 15 29 59.0000000  0  9G01G03G06G11G14G19G20G22G32                                     
  20886800.000     -243333.600    20886800.000     -186353.300
  23313260.000      444509.900    23313270.000      334353.100
  24463630.000      143262.100    24463630.000      107736.800
  20188890.000     -399000.700    20188880.000     -307000.700
  23564510.000     -124203.200    23564520.000      -94456.560
  21187370.000      321906.800    21187370.000      233628.000
  21804780.000     -400100.700    21804790.000     -303306.200
  24535290.000      268358.200    24535300.000      170476.100
  20502540.000     -816243.600    20502540.000     -159024.200
 11 11  3 15 30  0.0000000  0  9G01G03G06G11G14G19G20G22G32                                     
  20886600.000     -244389.800    20886600.000     -187176.400
  23313920.000      447962.900    23313930.000      337043.800
  24464240.000      146497.700    24464250.000      110258.000
  20188840.000     -399265.900    20188830.000     -307207.300
  23564490.000     -124310.600    23564490.000      -94540.250
  21187700.000      323655.100    21187700.000      234990.200
  21804240.000     -402957.000    21804240.000     -305531.900
  24535920.000      271630.200    24535920.000      173025.700
  20502310.000     -817424.600    20502320.000     -159944.400
 11 11  3 15 30  1.0000000  0  9G01G03G06G11G14G19G20G22G32                                     
  20886400.000     -245445.900    20886400.000     -187999.300
  23314580.000      451416.000    23314580.000      339734.500
  24464860.000      149733.400    24464860.000      112779.200
  20188780.000     -399530.800    20188780.000     -307413.700
  23564470.000     -124417.500    23564470.000      -94623.560
  21188040.000      325403.600    21188040.000      236352.700
  21803700.000     -405813.100    21803700.000     -307757.400
  24536540.000      274902.200    24536540.000      175575.400
  20502090.000     -818605.100    20502090.000     -160864.300
 11 11  3 15 30  2.0000000  0  9G01G03G06G11G14G19G20G22G32                                     
  20886200.000     -246501.500    20886200.000     -188821.800
  23315240.000      454869.600    23315240.000      342425.600
  24465480.000      152969.400    24465480.000      115300.800
  20188730.000     -399795.000    20188730.000     -307619.700
  23564450.000     -124523.500    23564450.000      -94706.200
  21188370.000      327152.800    21188370.000      237715.700
  21803150.000     -408668.500    21803150.000     -309982.400
  24537160.000      278174.600    24537160.000      178125.300
  20501870.000     -819784.700    20501870.000     -161783.400
 11 11  3 15 30  3.0000000  0  9G01G03G06G11G14G19G20G22G32                                     
  20886000.000     -247556.800    20886000.000     -189644.100
  23315890.000      458323.300    23315900.000      345116.800
  24466090.000      156205.600    24466100.000      117822.500
  20188680.000     -400059.000    20188680.000     -307825.300
  23564430.000     -124629.000    23564430.000      -94788.380
  21188700.000      328902.300    21188700.000      239079.000
  21802610.000     -411523.600    21802610.000     -312207.100
  24537780.000      281447.100    24537790.000      180675.300
  20501640.000     -820963.600    20501640.000     -162702.100
 11 11  3 15 30  4.0000000  0  9G01G03G06G11G14G19G20G22G32                                     
  20885790.000     -248611.900    20885800.000     -190466.300
  23316550.000      461777.200    23316550.000      347808.100
  24466710.000      159442.000    24466710.000      120344.300
  20188630.000     -400322.600    20188630.000     -308030.700
  23564410.000     -124733.900    23564410.000      -94870.110
  21189040.000      330652.300    21189040.000      240442.600
  21802070.000     -414378.200    21802070.000     -314431.500
  24538410.000      284719.700    24538410.000      183225.300
  20501420.000     -822142.000    20501420.000     -163620.300
 11 11  3 15 30  5.0000000  0  9G01G03G06G11G14G19G20G22G32                                     
  20885590.000     -249666.900    20885600.000     -191288.400
  23317210.000      465231.100    23317210.000      350499.500
  24467320.000      162678.300    24467330.000      122866.100
  20188580.000     -400586.000    20188580.000     -308236.000
  23564390.000     -124838.400    23564390.000      -94951.530
  21189370.000      332402.500    21189370.000      241806.400
  21801520.000     -417232.700    21801530.000     -316655.800
  24539030.000      287992.200    24539030.000      185775.300
  20501190.000     -823320.000    20501190.000     -164538.200
 11 11  3 15 30  6.0000000  0  9G01G03G06G11G14G19G20G22G32                                     
  20885390.000     -250721.600    20885400.000     -192110.300
  23317870.000      468685.200    23317870.000      353191.000
  24467940.000      165914.800    24467940.000      125388.000
  20188530.000     -400849.000    20188530.000     -308441.000
  23564370.000     -124942.300    23564370.000      -95032.480
  21189700.000      334153.100    21189700.000      243170.500
  21800980.000     -420086.800    21800980.000     -318879.700
  24539650.000      291264.800    24539650.000      188325.400
  20500970.000     -824497.400    20500970.000     -165455.600
 11 11  3 15 30  7.0000000  0  9G01G03G06G11G14G19G20G22G32                                     
  20885190.000     -251776.200    20885200.000     -192932.000
  23318520.000      472139.400    23318530.000      355882.500
  24468550.000      169151.400    24468560.000      127910.000
  20188480.000     -401111.800    20188480.000     -308645.700
  23564350.000     -125045.700    23564350.000      -95113.030
  21190030.000      335904.100    21190040.000      244534.900
  21800440.000     -422940.600    21800440.000     -321103.500
  24540270.000      294537.400    24540280.000      190875.500
  20500750.000     -825674.200    20500750.000     -166372.600
 11 11  3 15 30  9.0000000  0  9G01G03G06G11G14G19G20G22G32                                     
  20884790.000     -253884.300    20884790.000     -194574.600
  23319840.000      479048.700    23319840.000      361266.400
  24469790.000      175625.300    24469790.000      132954.600
  20188380.000     -401636.000    20188380.000     -309054.200
  23564310.000     -125250.300    23564320.000      -95272.480
  21190700.000      339407.500    21190700.000      247264.800
  21799350.000     -428646.800    21799350.000     -325549.800
  24541520.000      301083.400    24541520.000      195976.300
  20500300.000     -828025.600    20500300.000     -168205.000
 11 11  3 15 30 10.0000000  0  9G01G03G06G11G14G19G20G22G32                                     
  20884590.000     -254937.700    20884590.000     -195395.500
  23320490.000      482503.900    23320500.000      363958.800
  24470400.000      178862.700    24470410.000      135477.300
  20188330.000     -401897.300    20188330.000     -309257.800
  23564290.000     -125351.500    23564300.000      -95351.330
  21191040.000      341160.100    21191040.000      248630.500
  21798810.000     -431499.000    21798810.000     -327772.300
  24542140.000      304356.800    24542150.000      198527.000
  20500070.000     -829200.200    20500080.000     -169120.200
 11 11  3 15 30 11.0000000  0  9G01G03G06G11G14G19G20G22G32                                     
  20884390.000     -255991.000    20884390.000     -196216.300
  23321150.000      485959.100    23321160.000      366651.100
  24471020.000      182100.100    24471020.000      137999.900
  20188280.000     -402158.500    20188280.000     -309461.300
  23564270.000     -125452.300    23564280.000      -95429.890
  21191370.000      342912.900    21191370.000      249996.300
  21798270.000     -434351.100    21798270.000     -329994.700
  24542770.000      307630.100    24542770.000      201077.600
  20499850.000     -830374.400    20499850.000     -170035.200
 11 11  3 15 30 12.0000000  0  9G01G03G06G11G14G19G20G22G32                                     
  20884190.000     -257044.000    20884190.000     -197036.800
  23321810.000      489414.500    23321810.000      369343.600
  24471630.000      185337.700    24471640.000      140522.700
  20188240.000     -402419.300    20188230.000     -309664.500
  23564250.000     -125552.500    23564260.000      -95507.930
  21191700.000      344666.200    21191700.000      251362.500
  21797720.000     -437202.700    21797720.000     -332216.700
  24543390.000      310903.600    24543390.000      203628.400
  20499630.000     -831547.900    20499630.000     -170949.600
 11 11  3 15 30 13.0000000  0  9G01G03G06G11G14G19G20G22G32                                     
  20883990.000     -258096.400    20883990.000     -197856.800
  23322470.000      492870.500    23322470.000      372036.600
  24472250.000      188575.900    24472260.000      143045.900
  20188190.000     -402679.300    20188180.000     -309867.100
  23564240.000     -125651.600    23564240.000      -95585.180
  21192040.000      346420.200    21192040.000      252729.300
  21797180.000     -440053.500    21797180.000     -334438.200
  24544010.000      314177.600    24544020.000      206179.500
  20499400.000     -832720.400    20499410.000     -171863.200
 11 11  3 15 30 14.0000000  0  9G01G03G06G11G14G19G20G22G32                                     
  20883790.000     -259148.800    20883790.000     -198676.900
  23323130.000      496326.400    23323130.000      374729.500
  24472870.000      191814.000    24472870.000      145569.100
  20188140.000     -402939.100    20188130.000     -310069.600
  23564220.000     -125750.400    23564220.000      -95662.180
  21192370.000      348174.500    21192370.000      254096.200
  21796640.000     -442904.200    21796640.000     -336659.500
  24544640.000      317451.400    24544640.000      208730.600
  20499180.000     -833892.500    20499180.000     -172776.500
 11 11  3 15 30 15.0000000  0  9G01G03G06G11G14G19G20G22G32                                     
  20883590.000     -260201.400    20883590.000     -199497.100
  23323780.000      499782.000    23323790.000      377422.200
  24473480.000      195051.700    24473490.000      148091.900
  20188090.000     -403199.200    20188090.000     -310272.300
  23564200.000     -125849.200    23564200.000      -95739.140
  21192700.000      349928.600    21192700.000      255463.000
  21796100.000     -445755.100    21796100.000     -338881.000
  24545260.000      320724.800    24545260.000      211281.300
  20498960.000     -835064.500    20498960.000     -173689.800
 11 11  3 15 30 16.0000000  0  9G01G03G06G11G14G19G20G22G32                                     
  20883390.000     -261253.500    20883390.000     -200316.900
  23324440.000      503238.200    23324440.000      380115.300
  24474100.000      198289.900    24474100.000      150615.200
  20188040.000     -403458.500    20188040.000     -310474.300
  23564180.000     -125946.900    23564180.000      -95815.320
  21193040.000      351683.500    21193040.000      256830.500
  21795550.000     -448605.200    21795560.000     -341101.800
  24545880.000      323998.700    24545880.000      213832.400
  20498740.000     -836235.600    20498740.000     -174602.300
 11 11  3 15 30 17.0000000  0  9G01G03G06G11G14G19G20G22G32                                     
  20883190.000     -262305.200    20883190.000     -201136.400
  23325100.000      506694.500    23325100.000      382808.500
  24474720.000      201528.300    24474720.000      153138.600
  20187990.000     -403717.500    20187990.000     -310676.200
  23564160.000     -126044.200    23564160.000      -95891.060
  21193370.000      353438.800    21193370.000      258198.300
  21795010.000     -451454.900    21795010.000     -343322.400
  24546500.000      327272.700    24546510.000      216383.600
  20498510.000     -837406.000    20498510.000     -175514.300
 11 11  3 15 30 18.0000000  0  9G01G03G06G11G14G19G20G22G32                                     
  20882990.000     -263356.800    20882990.000     -201955.800
  23325760.000      510151.000    23325760.000      385501.900
  24475330.000      204766.800    24475340.000      155662.100
  20187940.000     -403976.200    20187940.000     -310877.700
  23564140.000     -126140.800    23564150.000      -95966.380
  21193710.000      355194.400    21193710.000      259566.300
  21794470.000     -454304.300    21794470.000     -345542.700
  24547130.000      330546.800    24547130.000      218934.800
  20498290.000     -838575.900    20498290.000     -176425.900
 11 11  3 15 30 19.0000000  0  9G01G03G06G11G14G19G20G22G32                                     
  20882790.000     -264408.000    20882790.000     -202774.900
  23326410.000      513607.800    23326420.000      388195.400
  24475950.000      208005.600    24475950.000      158185.800
  20187890.000     -404234.400    20187890.000     -311078.900
  23564120.000     -126236.800    23564130.000      -96041.150
  21194040.000      356950.600    21194040.000      260934.700
  21793930.000     -457153.200    21793930.000     -347762.600
  24547750.000      333821.100    24547750.000      221486.200
  20498070.000     -839745.100    20498070.000     -177337.000
 11 11  3 15 30 20.0000000  0  9G01G03G06G11G14G19G20G22G32                                     
  20882590.000     -265458.800    20882590.000     -203593.700
  23327070.000      517064.900    23327080.000      390889.300
  24476560.000      211244.600    24476570.000      160709.700
  20187840.000     -404492.200    20187840.000     -311279.800
  23564110.000     -126332.000    23564110.000      -96115.350
  21194370.000      358707.300    21194370.000      262303.600
  21793380.000     -460001.600    21793390.000     -349982.100
  24548370.000      337095.600    24548380.000      224037.800
  20497850.000     -840913.500    20497850.000     -178247.400
 11 11  3 15 30 21.0000000  0  9G01G03G06G11G14G19G20G22G32                                     
  20882390.000     -266509.600    20882390.000     -204412.500
  23327730.000      520521.900    23327730.000      393583.100
  24477180.000      214483.600    24477190.000      163233.500
  20187790.000     -404749.800    20187790.000     -311480.500
  23564090.000     -126426.900    23564090.000      -96189.270
  21194710.000      360464.200    21194710.000      263672.600
  21792840.000     -462849.800    21792840.000     -352201.500
  24549000.000      340370.000    24549000.000      226589.300
  20497620.000     -842081.500    20497620.000     -179157.600
 11 11  3 15 30 22.0000000  0  9G01G03G06G11G14G19G20G22G32                                     
  20882190.000     -267560.300    20882190.000     -205231.300
  23328390.000      523978.900    23328390.000      396276.800
  24477800.000      217722.400    24477800.000      165757.300
  20187740.000     -405007.300    20187740.000     -311681.100
  23564070.000     -126521.400    23564070.000      -96262.900
  21195040.000      362221.300    21195040.000      265041.700
  21792300.000     -465697.900    21792300.000     -354420.800
  24549620.000      343644.300    24549620.000      229140.600
  20497400.000     -843249.200    20497400.000     -180067.400
 11 11  3 15 30 23.0000000  0  9G01G03G06G11G14G19G20G22G32                                     
  20881990.000     -268610.900    20881990.000     -206049.900
  23329050.000      527436.000    23329050.000      398970.700
  24478410.000      220961.400    24478420.000      168281.200
  20187690.000     -405264.500    20187690.000     -311881.500
  23564050.000     -126615.400    23564060.000      -96336.130
  21195380.000      363978.700    21195380.000      266411.200
  21791760.000     -468545.700    21791760.000     -356639.800
  24550240.000      346918.700    24550250.000      231692.100
  20497180.000     -844416.300    20497180.000     -180976.900
 11 11  3 15 30 24.0000000  0  9G01G03G06G11G14G19G20G22G32                                     
  20881790.000     -269661.400    20881790.000     -206868.500
  23329700.000      530893.200    23329710.000      401664.600
  24479030.000      224200.400    24479040.000      170805.000
  20187640.000     -405521.400    20187640.000     -312081.800
  23564030.000     -126708.900    23564040.000      -96409.000
  21195710.000      365736.400    21195710.000      267780.800
  21791220.000     -471393.200    21791220.000     -358858.700
  24550870.000      350192.900    24550870.000      234243.400
  20496960.000     -845582.900    20496960.000     -181885.900
 11 11  3 15 30 25.0000000  0  9G01G03G06G11G14G19G20G22G32                                     
  20881590.000     -270711.400    20881590.000     -207686.700
  23330360.000      534350.700    23330360.000      404358.700
  24479650.000      227439.700    24479650.000      173329.100
  20187600.000     -405778.000    20187590.000     -312281.700
  23564020.000     -126801.700    23564020.000      -96481.340
  21196050.000      367494.600    21196050.000      269150.800
  21790680.000     -474240.300    21790680.000     -361077.200
  24551490.000      353467.400    24551490.000      236795.000
  20496730.000     -846748.800    20496740.000     -182794.400
 11 11  3 15 30 26.0000000  0  9G01G03G06G11G14G19G20G22G32                                     
  20881390.000     -271761.300    20881390.000     -208504.800
  23331020.000      537808.300    23331020.000      407053.000
  24480260.000      230679.000    24480270.000      175853.300
  20187550.000     -406034.200    20187550.000     -312481.300
  23564000.000     -126893.900    23564000.000      -96553.200
  21196380.000      369253.100    21196380.000      270521.100
  21790130.000     -477087.000    21790140.000     -363295.300
  24552110.000      356742.000    24552110.000      239346.600
  20496510.000     -847914.100    20496510.000     -183702.400
 11 11  3 15 30 27.0000000  0  9G01G03G06G11G14G19G20G22G32                                     
  20881190.000     -272810.600    20881190.000     -209322.400
  23331680.000      541266.400    23331680.000      409747.600
  24480880.000      233918.900    24480880.000      178377.800
  20187500.000     -406289.700    20187500.000     -312680.400
  23563980.000     -126985.300    23563990.000      -96624.390
  21196720.000      371012.500    21196720.000      271892.000
  21789590.000     -479932.900    21789590.000     -365513.000
  24552740.000      360017.100    24552740.000      241898.600
  20496290.000     -849078.500    20496290.000     -184609.800
 11 11  3 15 30 28.0000000  0  9G01G03G06G11G14G19G20G22G32                                     
  20880990.000     -273859.800    20880990.000     -210140.000
  23332340.000      544724.600    23332340.000      412442.300
  24481500.000      237158.800    24481500.000      180902.400
  20187450.000     -406545.000    20187450.000     -312879.400
  23563960.000     -127076.200    23563970.000      -96695.210
  21197050.000      372772.100    21197050.000      273263.100
  21789050.000     -482778.700    21789050.000     -367730.400
  24553360.000      363292.000    24553360.000      244450.500
  20496070.000     -850242.400    20496070.000     -185516.700
 11 11  3 15 30 29.0000000  0  9G01G03G06G11G14G19G20G22G32                                     
  20880790.000     -274908.700    20880790.000     -210957.300
  23332990.000      548183.000    23333000.000      415137.100
  24482110.000      240398.800    24482120.000      183427.100
  20187400.000     -406799.900    20187400.000     -313078.000
  23563950.000     -127166.500    23563950.000      -96765.580
  21197390.000      374532.000    21197390.000      274634.500
  21788510.000     -485624.000    21788510.000     -369947.600
  24553980.000      366567.100    24553980.000      247002.600
  20495850.000     -851405.700    20495850.000     -186423.200
 11 11  3 15 30 30.0000000  0  9G01G03G06G11G14G19G20G22G32                                     
  20880590.000     -275957.100    20880590.000     -211774.200
  23333650.000      551641.900    23333650.000      417832.300
  24482730.000      243639.300    24482730.000      185952.100
  20187350.000     -407054.200    20187350.000     -313276.200
  23563930.000     -127255.900    23563930.000      -96835.230
  21197720.000      376292.800    21197720.000      276006.500
  21787970.000     -488468.700    21787970.000     -372164.200
  24554600.000      369842.700    24554610.000      249554.900
  20495630.000     -852568.100    20495630.000     -187328.900
 11 11  3 15 30 31.0000000  0  9G01G03G06G11G14G19G20G22G32                                     
  20880390.000     -277005.000    20880390.000     -212590.800
  23334310.000      555101.100    23334310.000      420527.800
  24483350.000      246880.100    24483350.000      188477.400
  20187300.000     -407308.000    20187300.000     -313473.900
  23563910.000     -127344.500    23563920.000      -96904.290
  21198060.000      378054.100    21198060.000      277379.000
  21787430.000     -491312.800    21787430.000     -374380.400
  24555230.000      373118.500    24555230.000      252107.500
  20495410.000     -853729.700    20495410.000     -188234.100
 11 11  3 15 30 33.0000000  0  9G01G03G06G11G14G19G20G22G32                                     
  20879990.000     -279100.700    20880000.000     -214223.800
  23335630.000      562019.400    23335630.000      425918.700
  24484580.000      253361.500    24484580.000      193527.800
  20187210.000     -407815.100    20187210.000     -313869.100
  23563880.000     -127520.700    23563880.000      -97041.550
  21198730.000      381577.200    21198730.000      280124.200
  21786340.000     -497000.500    21786350.000     -378812.400
  24556470.000      379669.700    24556480.000      257212.300
  20494960.000     -856051.800    20494970.000     -190043.500
 11 11  3 15 30 34.0000000  0  9G01G03G06G11G14G19G20G22G32                                     
  20879790.000     -280148.600    20879800.000     -215040.400
  23336280.000      565478.400    23336290.000      428614.000
  24485200.000      256602.100    24485200.000      196052.900
  20187160.000     -408068.500    20187160.000     -314066.500
  23563860.000     -127608.300    23563870.000      -97109.800
  21199060.000      383339.000    21199060.000      281497.100
  21785800.000     -499844.200    21785800.000     -381028.200
  24557100.000      382945.100    24557100.000      259764.600
  20494740.000     -857212.200    20494750.000     -190947.700
 11 11  3 15 30 35.0000000  0  9G01G03G06G11G14G19G20G22G32                                     
  20879590.000     -281196.000    20879600.000     -215856.500
  23336940.000      568937.900    23336950.000      431309.700
  24485810.000      259843.000    24485820.000      198578.300
  20187110.000     -408321.400    20187110.000     -314263.500
  23563850.000     -127695.000    23563850.000      -97177.400
  21199400.000      385101.400    21199400.000      282870.400
  21785260.000     -502687.300    21785260.000     -383243.600
  24557720.000      386220.800    24557720.000      262317.100
  20494520.000     -858371.900    20494520.000     -191851.400
 11 11  3 15 30 37.0000000  0  9G01G03G06G11G14G19G20G22G32                                     
  20879200.000     -283289.700    20879200.000     -217487.900
  23338260.000      575857.800    23338260.000      436701.800
  24487050.000      266325.800    24487050.000      203629.700
  20187020.000     -408825.600    20187010.000     -314656.500
  23563810.000     -127866.400    23563820.000      -97310.920
  21200070.000      388627.900    21200070.000      285618.300
  21784180.000     -508371.900    21784180.000     -387673.200
  24558970.000      392773.000    24558970.000      267422.700
  20494080.000     -860689.000    20494080.000     -193656.900
 11 11  3 15 30 38.0000000  0  9G01G03G06G11G14G19G20G22G32                                     
  20879000.000     -284336.400    20879000.000     -218303.600
  23338920.000      579317.700    23338920.000      439397.900
  24487660.000      269567.100    24487670.000      206155.500
  20186970.000     -409077.500    20186970.000     -314852.700
  23563800.000     -127951.400    23563800.000      -97377.190
  21200400.000      390391.500    21200400.000      286992.500
  21783640.000     -511213.900    21783640.000     -389887.700
  24559590.000      396049.000    24559590.000      269975.400
  20493860.000     -861846.800    20493860.000     -194559.100
 11 11  3 15 30 39.0000000  0  9G01G03G06G11G14G19G20G22G32                                     
  20878800.000     -285382.600    20878800.000     -219118.800
  23339580.000      582778.100    23339580.000      442094.300
  24488280.000      272808.900    24488290.000      208681.500
  20186920.000     -409328.700    20186920.000     -315048.500
  23563780.000     -128035.600    23563790.000      -97442.800
  21200740.000      392155.700    21200740.000      288367.300
  21783100.000     -514055.300    21783100.000     -392101.800
  24560220.000      399325.300    24560220.000      272528.400
  20493640.000     -863003.900    20493640.000     -195460.700
 11 11  3 15 30 40.0000000  0  9G01G03G06G11G14G19G20G22G32                                     
  20878600.000     -286428.400    20878600.000     -219933.700
  23340240.000      586238.800    23340240.000      444790.900
  24488900.000      276050.900    24488900.000      211207.700
  20186870.000     -409579.500    20186870.000     -315243.900
  23563770.000     -128119.100    23563770.000      -97507.860
  21201080.000      393920.500    21201080.000      289742.400
  21782560.000     -516896.100    21782560.000     -394315.400
  24560840.000      402601.900    24560840.000      275081.600
  20493420.000     -864160.100    20493420.000     -196361.700
 11 11  3 15 30 41.0000000  0  9G01G03G06G11G14G19G20G22G32                                     
  20878400.000     -287474.000    20878400.000     -220748.400
  23340890.000      589699.700    23340900.000      447487.700
  24489510.000      279293.100    24489520.000      213734.100
  20186820.000     -409829.800    20186820.000     -315439.000
  23563750.000     -128202.000    23563750.000      -97572.430
  21201410.000      395685.700    21201410.000      291117.900
  21782020.000     -519736.600    21782020.000     -396528.800
  24561460.000      405878.600    24561470.000      277634.900
  20493200.000     -865315.800    20493200.000     -197262.200
 11 11  3 15 30 42.0000000  0  9G01G03G06G11G14G19G20G22G32                                     
  20878200.000     -288519.700    20878200.000     -221563.200
  23341550.000      593160.400    23341560.000      450184.400
  24490130.000      282535.100    24490140.000      216260.300
  20186780.000     -410080.300    20186780.000     -315634.100
  23563730.000     -128284.700    23563740.000      -97636.850
  21201750.000      397450.900    21201750.000      292493.400
  21781480.000     -522577.000    21781480.000     -398742.100
  24562090.000      409155.000    24562090.000      280187.900
  20492980.000     -866471.200    20492980.000     -198162.500
 11 11  3 15 30 43.0000000  0  9G01G03G06G11G14G19G20G22G32                                     
  20878000.000     -289565.200    20878000.000     -222377.900
  23342210.000      596621.200    23342210.000      452881.100
  24490750.000      285777.100    24490750.000      218786.500
  20186730.000     -410330.500    20186730.000     -315829.100
  23563720.000     -128366.900    23563720.000      -97700.880
  21202080.000      399216.500    21202080.000      293869.100
  21780940.000     -525417.200    21780940.000     -400955.200
  24562710.000      412431.500    24562710.000      282741.000
  20492760.000     -867626.100    20492760.000     -199062.400
 11 11  3 15 30 44.0000000  0  9G01G03G06G11G14G19G20G22G32                                     
  20877800.000     -290610.200    20877810.000     -223192.200
  23342870.000      600082.500    23342870.000      455578.200
  24491360.000      289019.600    24491370.000      221313.100
  20186680.000     -410580.000    20186680.000     -316023.500
  23563700.000     -128448.100    23563710.000      -97764.230
  21202420.000      400982.700    21202420.000      295245.400
  21780400.000     -528256.700    21780400.000     -403167.800
  24563330.000      415708.300    24563340.000      285294.300
  20492540.000     -868780.100    20492540.000     -199961.600
 11 11  3 15 30 45.0000000  0  9G01G03G06G11G14G19G20G22G32                                     
  20877600.000     -291655.000    20877610.000     -224006.400
  23343530.000      603543.800    23343530.000      458275.300
  24491980.000      292262.100    24491990.000      223839.700
  20186630.000     -410829.300    20186630.000     -316217.700
  23563690.000     -128529.000    23563690.000      -97827.210
  21202760.000      402749.200    21202760.000      296621.900
  21779860.000     -531095.900    21779860.000     -405380.200
  24563960.000      418985.100    24563960.000      287847.700
  20492320.000     -869933.600    20492320.000     -200860.500
 11 11  3 15 30 47.0000000  0  9G01G03G06G11G14G19G20G22G32                                     
  20877210.000     -293743.300    20877210.000     -225633.600
  23344850.000      610467.700    23344850.000      463670.500
  24493220.000      298748.200    24493220.000      228893.800
  20186540.000     -411326.100    20186540.000     -316604.900
  23563660.000     -128688.200    23563660.000      -97951.270
  21203430.000      406284.200    21203430.000      299376.400
  21778780.000     -536772.600    21778780.000     -409803.600
  24565200.000      425539.700    24565210.000      292955.200
  20491880.000     -872238.100    20491890.000     -202656.200
 11 11  3 15 30 48.0000000  0  9G01G03G06G11G14G19G20G22G32                                     
  20877010.000     -294786.800    20877010.000     -226446.700
  23345500.000      613930.100    23345510.000      466368.500
  24493830.000      301991.700    24493840.000      231421.100
  20186490.000     -411573.800    20186490.000     -316797.900
  23563640.000     -128766.700    23563650.000      -98012.450
  21203760.000      408052.500    21203770.000      300754.300
  21778240.000     -539610.200    21778240.000     -412014.600
  24565830.000      428817.400    24565830.000      295509.200
  20491670.000     -873389.300    20491670.000     -203553.200
 11 11  3 15 30 49.0000000  0  9G01G03G06G11G14G19G20G22G32                                     
  20876810.000     -295830.100    20876810.000     -227259.700
  23346160.000      617392.800    23346170.000      469066.700
  24494450.000      305235.400    24494460.000      233948.700
  20186450.000     -411821.100    20186440.000     -316990.600
  23563630.000     -128844.600    23563630.000      -98073.160
  21204100.000      409821.200    21204100.000      302132.500
  21777700.000     -542447.300    21777700.000     -414225.400
  24566450.000      432095.200    24566450.000      298063.400
  20491450.000     -874539.800    20491450.000     -204449.700
 11 11  3 15 30 50.0000000  0  9G01G03G06G11G14G19G20G22G32                                     
  20876610.000     -296873.200    20876610.000     -228072.500
  23346820.000      620855.500    23346830.000      471764.800
  24495070.000      308479.100    24495070.000      236476.200
  20186400.000     -412068.200    20186400.000     -317183.200
  23563610.000     -128922.100    23563620.000      -98133.500
  21204440.000      411590.200    21204440.000      303511.000
  21777160.000     -545284.200    21777160.000     -416436.000
  24567080.000      435373.000    24567080.000      300617.500
  20491230.000     -875689.800    20491230.000     -205345.800
 11 11  3 15 30 51.0000000  0  9G01G03G06G11G14G19G20G22G32                                     
  20876410.000     -297916.400    20876420.000     -228885.300
  23347480.000      624318.100    23347480.000      474463.000
  24495680.000      311722.700    24495690.000      239003.600
  20186350.000     -412315.200    20186350.000     -317375.600
  23563600.000     -128999.200    23563600.000      -98193.570
  21204770.000      413359.300    21204770.000      304889.500
  21776620.000     -548121.000    21776620.000     -418646.400
  24567700.000      438650.600    24567700.000      303171.500
  20491010.000     -876839.400    20491010.000     -206241.600
 11 11  3 15 30 52.0000000  0  9G01G03G06G11G14G19G20G22G32                                     
  20876210.000     -298959.700    20876220.000     -229698.300
  23348140.000      627780.400    23348140.000      477160.900
  24496300.000      314966.000    24496310.000      241530.900
  20186300.000     -412562.300    20186300.000     -317568.200
  23563580.000     -129076.100    23563590.000      -98253.540
  21205110.000      415128.400    21205110.000      306268.000
  21776080.000     -550957.800    21776080.000     -420856.900
  24568320.000      441927.900    24568330.000      305725.200
  20490790.000     -877988.900    20490790.000     -207137.300
 11 11  3 15 30 54.0000000  0  9G01G03G06G11G14G19G20G22G32                                     
  20875820.000     -301045.000    20875820.000     -231323.200
  23349460.000      634706.300    23349460.000      482557.700
  24497540.000      321453.700    24497540.000      246586.200
  20186210.000     -413054.800    20186210.000     -317951.900
  23563560.000     -129227.600    23563560.000      -98371.570
  21205780.000      418668.500    21205790.000      309026.600
  21775000.000     -556629.600    21775000.000     -425276.500
  24569570.000      448483.500    24569570.000      310833.400
  20490350.000     -880285.400    20490350.000     -208926.800
 11 11  3 15 30 55.0000000  0  9G01G03G06G11G14G19G20G22G32                                     
  20875620.000     -302087.000    20875620.000     -232135.200
  23350120.000      638169.800    23350120.000      485256.500
  24498150.000      324697.900    24498160.000      249114.200
  20186160.000     -413300.300    20186160.000     -318143.200
  23563540.000     -129302.300    23563540.000      -98429.740
  21206120.000      420439.400    21206120.000      310406.400
  21774460.000     -559464.800    21774460.000     -427485.800
  24570190.000      451761.600    24570200.000      313387.800
  20490130.000     -881432.600    20490140.000     -209820.700
 11 11  3 15 30 56.0000000  0  9G01G03G06G11G14G19G20G22G32                                     
  20875420.000     -303128.700    20875420.000     -232946.900
  23350780.000      641633.500    23350780.000      487955.400
  24498770.000      327942.500    24498780.000      251642.300
  20186120.000     -413545.400    20186120.000     -318334.200
  23563530.000     -129376.200    23563530.000      -98487.390
  21206460.000      422210.700    21206460.000      311786.700
  21773920.000     -562299.500    21773920.000     -429694.600
  24570820.000      455039.900    24570820.000      315942.300
  20489920.000     -882579.000    20489920.000     -210714.000
 11 11  3 15 30 58.0000000  0  9G01G03G06G11G14G19G20G22G32                                     
  20875020.000     -305211.400    20875030.000     -234569.800
  23352090.000      648561.400    23352100.000      493353.800
  24500010.000      334432.000    24500010.000      256699.100
  20186020.000     -414034.400    20186020.000     -318715.300
  23563500.000     -129522.400    23563500.000      -98601.250
  21207130.000      425754.600    21207130.000      314548.200
  21772840.000     -567967.700    21772840.000     -434111.400
  24572070.000      461596.900    24572070.000      321051.700
  20489480.000     -884870.000    20489480.000     -212499.200
 11 11  3 15 30 59.0000000  0  9G01G03G06G11G14G19G20G22G32                                     
  20874830.000     -306252.800    20874830.000     -235381.200
  23352750.000      652025.200    23352760.000      496052.900
  24500620.000      337676.500    24500630.000      259227.300
  20185980.000     -414278.900    20185980.000     -318905.700
  23563490.000     -129595.000    23563490.000      -98657.850
  21207470.000      427526.800    21207470.000      315929.100
  21772300.000     -570801.700    21772300.000     -436319.700
  24572690.000      464875.100    24572690.000      323606.100
  20489260.000     -886015.100    20489260.000     -213391.500
 11 11  3 15 31  0.0000000  0  9G01G03G06G11G14G19G20G22G32                                     
  20874630.000     -307293.700    20874630.000     -236192.400
  23353410.000      655489.400    23353420.000      498752.200
  24501240.000      340921.400    24501250.000      261755.700
  20185930.000     -414522.800    20185930.000     -319095.800
  23563470.000     -129666.900    23563470.000      -98713.860
  21207810.000      429299.500    21207810.000      317310.400
  21771760.000     -573635.100    21771760.000     -438527.500
  24573310.000      468153.500    24573320.000      326160.800
  20489040.000     -887159.300    20489050.000     -214283.100
 11 11  3 15 31  1.0000000  0  9G01G03G06G11G14G19G20G22G32                                     
  20874430.000     -308334.600    20874430.000     -237003.400
  23354070.000      658953.600    23354080.000      501451.600
  24501860.000      344166.300    24501860.000      264284.200
  20185890.000     -414766.500    20185880.000     -319285.700
  23563460.000     -129738.300    23563460.000      -98769.510
  21208150.000      431072.400    21208150.000      318691.900
  21771220.000     -576468.300    21771220.000     -440735.200
  24573940.000      471432.000    24573940.000      328715.400
  20488830.000     -888303.100    20488830.000     -215174.400
 11 11  3 15 31  2.0000000  0  9G01G03G06G11G14G19G20G22G32                                     
  20874230.000     -309375.300    20874230.000     -237814.400
  23354730.000      662417.800    23354740.000      504151.000
  24502480.000      347411.100    24502480.000      266812.600
  20185840.000     -415010.000    20185840.000     -319475.500
  23563440.000     -129809.300    23563450.000      -98824.840
  21208480.000      432845.600    21208480.000      320073.700
  21770680.000     -579301.300    21770680.000     -442942.700
  24574560.000      474710.300    24574560.000      331269.900
  20488610.000     -889446.500    20488610.000     -216065.300
 11 11  3 15 31  3.0000000  0  9G01G03G06G11G14G19G20G22G32                                     
  20874030.000     -310416.000    20874040.000     -238625.300
  23355390.000      665882.100    23355390.000      506850.400
  24503090.000      350656.000    24503100.000      269341.100
  20185790.000     -415253.300    20185790.000     -319665.000
  23563430.000     -129879.800    23563430.000      -98879.770
  21208820.000      434619.200    21208820.000      321455.600
  21770140.000     -582134.000    21770150.000     -445150.000
  24575180.000      477988.700    24575190.000      333824.500
  20488390.000     -890589.300    20488390.000     -216955.800
 11 11  3 15 31  4.0000000  0  9G01G03G06G11G14G19G20G22G32                                     
  20873840.000     -311456.100    20873840.000     -239435.800
  23356050.000      669346.800    23356050.000      509550.200
  24503710.000      353901.300    24503720.000      271869.900
  20185750.000     -415496.000    20185750.000     -319854.200
  23563420.000     -129949.500    23563420.000      -98934.090
  21209160.000      436393.300    21209160.000      322838.100
  21769600.000     -584966.100    21769610.000     -447356.800
  24575810.000      481267.400    24575810.000      336379.300
  20488170.000     -891731.400    20488180.000     -217845.700
 11 11  3 15 31  5.0000000  0  9G01G03G06G11G14G19G20G22G32                                     
  20873640.000     -312495.700    20873640.000     -240245.900
  23356710.000      672812.000    23356710.000      512250.300
  24504330.000      357147.100    24504330.000      274399.000
  20185700.000     -415738.100    20185700.000     -320042.800
  23563410.000     -130018.300    23563410.000      -98987.700
  21209500.000      438168.200    21209500.000      324221.100
  21769070.000     -587797.500    21769070.000     -449563.100
  24576430.000      484546.400    24576440.000      338934.500
  20487960.000     -892872.500    20487960.000     -218734.900
 11 11  3 15 31  6.0000000  0  9G01G03G06G11G14G19G20G22G32                                     
  20873440.000     -313534.700    20873440.000     -241055.400
  23357370.000      676277.700    23357370.000      514950.900
  24504950.000      360393.300    24504950.000      276928.500
  20185650.000     -415979.400    20185650.000     -320230.800
  23563390.000     -130086.200    23563390.000      -99040.570
  21209830.000      439943.800    21209830.000      325604.700
  21768530.000     -590628.100    21768530.000     -451768.800
  24577060.000      487826.000    24577060.000      341490.000
  20487740.000     -894012.600    20487740.000     -219623.300
 11 11  3 15 31  7.0000000  0  9G01G03G06G11G14G19G20G22G32                                     
  20873240.000     -314573.900    20873250.000     -241865.200
  23358030.000      679743.100    23358030.000      517651.200
  24505560.000      363639.200    24505570.000      279457.800
  20185610.000     -416220.900    20185610.000     -320419.000
  23563380.000     -130153.900    23563380.000      -99093.350
  21210170.000      441719.300    21210170.000      326988.200
  21767990.000     -593458.900    21767990.000     -453974.600
  24577680.000      491105.200    24577680.000      344045.200
  20487520.000     -895152.600    20487530.000     -220511.600
 11 11  3 15 31  8.0000000  0  9G01G03G06G11G14G19G20G22G32                                     
  20873040.000     -315612.900    20873050.000     -242674.800
  23358690.000      683208.700    23358690.000      520351.600
  24506180.000      366885.200    24506190.000      281987.100
  20185560.000     -416462.000    20185560.000     -320606.900
  23563370.000     -130221.100    23563370.000      -99145.710
  21210510.000      443495.300    21210510.000      328372.000
  21767450.000     -596289.300    21767450.000     -456180.100
  24578300.000      494384.500    24578310.000      346600.500
  20487310.000     -896292.000    20487310.000     -221399.400
 11 11  3 15 31  9.0000000  0  9G01G03G06G11G14G19G20G22G32                                     
  20872850.000     -316651.400    20872850.000     -243484.000
  23359350.000      686674.700    23359350.000      523052.400
  24506800.000      370131.700    24506810.000      284516.800
  20185520.000     -416702.600    20185520.000     -320794.400
  23563350.000     -130287.500    23563360.000      -99197.400
  21210850.000      445271.800    21210850.000      329756.400
  21766910.000     -599119.100    21766910.000     -458385.100
  24578930.000      497664.100    24578930.000      349156.000
  20487090.000     -897430.500    20487090.000     -222286.600
 11 11  3 15 31 10.0000000  0  9G01G03G06G11G14G19G20G22G32                                     
  20872650.000     -317690.400    20872650.000     -244293.700
  23360010.000      690140.100    23360010.000      525752.700
  24507420.000      373377.500    24507420.000      287046.000
  20185470.000     -416943.600    20185470.000     -320982.100
  23563340.000     -130354.000    23563340.000      -99249.250
  21211190.000      447048.000    21211190.000      331140.400
  21766370.000     -601949.200    21766370.000     -460590.500
  24579550.000      500943.000    24579560.000      351711.000
  20486870.000     -898569.300    20486870.000     -223174.000
 11 11  3 15 31 11.0000000  0  9G01G03G06G11G14G19G20G22G32                                     
  20872450.000     -318729.500    20872450.000     -245103.400
  23360670.000      693605.300    23360670.000      528452.900
  24508030.000      376623.100    24508040.000      289575.000
  20185430.000     -417184.500    20185420.000     -321169.900
  23563330.000     -130420.300    23563330.000      -99300.890
  21211520.000      448824.300    21211520.000      332524.500
  21765830.000     -604779.400    21765840.000     -462795.800
  24580180.000      504221.700    24580180.000      354265.800
  20486660.000     -899707.700    20486660.000     -224061.100
 11 11  3 15 31 12.0000000  0  9G01G03G06G11G14G19G20G22G32                                     
  20872250.000     -319767.200    20872260.000     -245912.000
  23361330.000      697071.900    23361330.000      531154.100
  24508650.000      379870.000    24508660.000      292105.000
  20185380.000     -417424.000    20185380.000     -321356.500
  23563320.000     -130484.800    23563320.000      -99351.200
  21211860.000      450602.100    21211860.000      333909.800
  21765300.000     -607608.000    21765300.000     -464999.900
  24580800.000      507501.600    24580800.000      356821.600
  20486440.000     -900844.400    20486440.000     -224946.800
 11 11  3 15 31 14.0000000  0  9G01G03G06G11G14G19G20G22G32                                     
  20871860.000     -321840.700    20871860.000     -247527.700
  23362650.000      704006.700    23362650.000      536557.800
  24509890.000      386365.400    24509900.000      297166.300
  20185290.000     -417900.800    20185290.000     -321728.000
  23563290.000     -130611.000    23563290.000      -99449.530
  21212540.000      454160.100    21212540.000      336682.300
  21764220.000     -613262.900    21764220.000     -469406.300
  24582050.000      514062.900    24582050.000      361934.300
  20486010.000     -903114.900    20486010.000     -226716.000
 11 11  3 15 31 15.0000000  0  9G01G03G06G11G14G19G20G22G32                                     
  20871660.000     -322877.000    20871670.000     -248335.200
  23363310.000      707474.400    23363310.000      539259.900
  24510510.000      389613.400    24510510.000      299697.200
  20185240.000     -418138.600    20185240.000     -321913.300
  23563280.000     -130673.100    23563280.000      -99497.900
  21212880.000      455939.800    21212880.000      338069.000
  21763680.000     -616089.700    21763680.000     -471609.000
  24582670.000      517343.800    24582680.000      364490.800
  20485790.000     -904249.100    20485790.000     -227599.800
 11 11  3 15 31 16.0000000  0  9G01G03G06G11G14G19G20G22G32                                     
  20871470.000     -323913.100    20871470.000     -249142.500
  23363970.000      710942.400    23363970.000      541962.200
  24511120.000      392861.500    24511130.000      302228.200
  20185200.000     -418376.000    20185200.000     -322098.300
  23563270.000     -130734.700    23563270.000      -99545.870
  21213220.000      457719.800    21213220.000      339456.100
  21763140.000     -618916.200    21763150.000     -473811.400
  24583300.000      520624.800    24583300.000      367047.400
  20485580.000     -905382.700    20485580.000     -228483.100
 11 11  3 15 31 17.0000000  0  9G01G03G06G11G14G19G20G22G32                                     
  20871270.000     -324949.500    20871270.000     -249950.100
  23364630.000      714409.800    23364630.000      544664.100
  24511740.000      396109.200    24511750.000      304758.900
  20185150.000     -418613.700    20185150.000     -322283.600
  23563260.000     -130796.300    23563260.000      -99593.880
  21213560.000      459499.700    21213550.000      340843.000
  21762610.000     -621742.900    21762610.000     -476014.100
  24583920.000      523905.200    24583930.000      369603.600
  20485360.000     -906516.400    20485360.000     -229366.500
 11 11  3 15 31 18.0000000  0  9G01G03G06G11G14G19G20G22G32                                     
  20871070.000     -325985.900    20871070.000     -250757.700
  23365280.000      717877.200    23365290.000      547366.000
  24512360.000      399356.800    24512370.000      307289.400
  20185110.000     -418851.300    20185110.000     -322468.700
  23563250.000     -130857.500    23563250.000      -99641.560
  21213890.000      461279.700    21213890.000      342230.100
  21762070.000     -624569.400    21762070.000     -478216.500
  24584550.000      527185.500    24584550.000      372159.700
  20485150.000     -907649.600    20485150.000     -230249.500
 11 11  3 15 31 19.0000000  0  9G01G03G06G11G14G19G20G22G32                                     
  20870870.000     -327021.900    20870880.000     -251564.900
  23365940.000      721345.100    23365950.000      550068.200
  24512980.000      402604.800    24512990.000      309820.300
  20185060.000     -419088.300    20185060.000     -322653.400
  23563230.000     -130917.900    23563240.000      -99688.640
  21214230.000      463060.400    21214230.000      343617.600
  21761530.000     -627395.300    21761530.000     -480418.600
  24585170.000      530466.200    24585170.000      374716.100
  20484930.000     -908782.100    20484930.000     -231132.000
 11 11  3 15 31 20.0000000  0  9G01G03G06G11G14G19G20G22G32                                     
  20870680.000     -328057.600    20870680.000     -252372.000
  23366600.000      724813.000    23366610.000      552770.500
  24513600.000      405852.800    24513600.000      312351.200
  20185020.000     -419325.100    20185020.000     -322837.800
  23563220.000     -130977.800    23563230.000      -99735.300
  21214570.000      464841.400    21214570.000      345005.400
  21760990.000     -630220.900    21760990.000     -482620.300
  24585790.000      533746.900    24585800.000      377272.400
  20484710.000     -909914.000    20484720.000     -232013.900
 11 11  3 15 31 21.0000000  0  9G01G03G06G11G14G19G20G22G32                                     
  20870480.000     -329093.100    20870480.000     -253178.900
  23367260.000      728281.200    23367270.000      555472.900
  24514210.000      409101.100    24514220.000      314882.300
  20184970.000     -419561.400    20184970.000     -323022.000
  23563210.000     -131037.000    23563210.000      -99781.460
  21214910.000      466622.800    21214910.000      346393.500
  21760460.000     -633046.100    21760460.000     -484821.800
  24586420.000      537027.700    24586420.000      379828.900
  20484500.000     -911045.200    20484500.000     -232895.400
 11 11  3 15 31 22.0000000  0  9G01G03G06G11G14G19G20G22G32                                     
  20870280.000     -330128.200    20870290.000     -253985.500
  23367920.000      731749.600    23367930.000      558175.600
  24514830.000      412349.500    24514840.000      317413.500
  20184930.000     -419797.400    20184930.000     -323205.900
  23563200.000     -131095.700    23563200.000      -99827.140
  21215250.000      468404.700    21215250.000      347782.000
  21759920.000     -635870.900    21759920.000     -487022.900
  24587040.000      540308.700    24587050.000      382385.500
  20484280.000     -912175.800    20484290.000     -233776.400
 11 11  3 15 31 23.0000000  0  9G01G03G06G11G14G19G20G22G32                                     
  20870090.000     -331163.200    20870090.000     -254791.900
  23368580.000      735218.100    23368590.000      560878.300
  24515450.000      415598.000    24515460.000      319944.800
  20184880.000     -420033.000    20184880.000     -323389.500
  23563190.000     -131153.700    23563190.000      -99872.340
  21215590.000      470187.000    21215590.000      349170.800
  21759380.000     -638695.300    21759380.000     -489223.700
  24587670.000      543589.700    24587670.000      384942.200
  20484070.000     -913305.700    20484070.000     -234656.900
 11 11  3 15 31 25.0000000  0  9G01G03G06G11G14G19G20G22G32                                     
  20869690.000     -333232.500    20869700.000     -256404.400
  23369900.000      742155.500    23369910.000      566284.100
  24516690.000      422095.400    24516690.000      325007.700
  20184790.000     -420503.400    20184790.000     -323756.000
  23563170.000     -131268.200    23563170.000      -99961.560
  21216270.000      473752.600    21216270.000      351949.200
  21758310.000     -644343.100    21758310.000     -493624.600
  24588920.000      550151.900    24588920.000      390055.600
  20483640.000     -915564.100    20483640.000     -236416.600
 11 11  3 15 31 26.0000000  0  9G01G03G06G11G14G19G20G22G32                                     
  20869500.000     -334266.800    20869500.000     -257210.300
  23370570.000      745624.500    23370570.000      568987.100
  24517310.000      425344.200    24517310.000      327539.200
  20184750.000     -420738.100    20184750.000     -323938.900
  23563160.000     -131324.600    23563160.000     -100005.500
  21216610.000      475535.900    21216610.000      353338.800
  21757770.000     -647166.500    21757770.000     -495824.700
  24589540.000      553433.100    24589540.000      392612.400
  20483420.000     -916692.400    20483430.000     -237295.800
 11 11  3 15 31 27.0000000  0  9G01G03G06G11G14G19G20G22G32                                     
  20869300.000     -335300.700    20869300.000     -258016.000
  23371230.000      749093.800    23371230.000      571690.500
  24517920.000      428593.400    24517930.000      330071.000
  20184700.000     -420972.300    20184700.000     -324121.400
  23563150.000     -131380.300    23563150.000     -100048.900
  21216950.000      477319.800    21216950.000      354728.800
  21757230.000     -649989.400    21757230.000     -498024.300
  24590170.000      556714.600    24590170.000      395169.400
  20483210.000     -917819.900    20483210.000     -238174.400
 11 11  3 15 31 28.0000000  0  9G01G03G06G11G14G19G20G22G32                                     
  20869100.000     -336334.700    20869100.000     -258821.700
  23371890.000      752562.800    23371890.000      574393.600
  24518540.000      431842.300    24518550.000      332602.600
  20184660.000     -421206.500    20184660.000     -324303.900
  23563140.000     -131435.700    23563140.000     -100092.100
  21217290.000      479103.800    21217290.000      356118.900
  21756690.000     -652812.300    21756700.000     -500223.900
  24590790.000      559995.800    24590790.000      397726.100
  20483000.000     -918947.200    20483000.000     -239052.800
 11 11  3 15 31 30.0000000  0  9G01G03G06G11G14G19G20G22G32                                     
  20868710.000     -338402.200    20868710.000     -260432.700
  23373210.000      759501.400    23373210.000      579800.300
  24519780.000      438340.500    24519790.000      337666.100
  20184570.000     -421674.100    20184570.000     -324668.200
  23563110.000     -131545.000    23563120.000     -100177.300
  21217960.000      482672.700    21217960.000      358899.900
  21755620.000     -658457.000    21755620.000     -504622.400
  24592040.000      566558.300    24592040.000      402839.800
  20482570.000     -921200.200    20482570.000     -240808.400
 11 11  3 15 31 31.0000000  0  9G01G03G06G11G14G19G20G22G32                                     
  20868510.000     -339434.400    20868510.000     -261237.000
  23373870.000      762972.100    23373870.000      582504.700
  24520400.000      441591.000    24520400.000      340199.000
  20184530.000     -421906.100    20184530.000     -324849.100
  23563100.000     -131597.600    23563110.000     -100218.300
  21218300.000      484459.000    21218300.000      360291.800
  21755080.000     -661277.600    21755080.000     -506820.300
  24592660.000      569840.900    24592670.000      405397.700
  20482350.000     -922324.500    20482350.000     -241684.500
 11 11  3 15 31 32.0000000  0  9G01G03G06G11G14G19G20G22G32                                     
  20868320.000     -340467.100    20868320.000     -262041.800
  23374530.000      766442.200    23374530.000      585208.700
  24521020.000      444840.900    24521020.000      342731.300
  20184480.000     -422138.600    20184480.000     -325030.200
  23563090.000     -131650.400    23563100.000     -100259.400
  21218640.000      486244.800    21218640.000      361683.400
  21754550.000     -664098.600    21754550.000     -509018.500
  24593290.000      573122.800    24593290.000      407955.000
  20482140.000     -923449.100    20482140.000     -242560.800
 11 11  3 15 31 33.0000000  0  9G01G03G06G11G14G19G20G22G32                                     
  20868120.000     -341499.500    20868120.000     -262846.200
  23375190.000      769912.600    23375190.000      587912.900
  24521630.000      448090.900    24521640.000      345263.800
  20184440.000     -422370.700    20184440.000     -325211.100
  23563080.000     -131702.500    23563090.000     -100300.000
  21218980.000      488031.200    21218980.000      363075.300
  21754010.000     -666919.100    21754010.000     -511216.300
  24593910.000      576404.900    24593920.000      410512.400
  20481930.000     -924572.900    20481930.000     -243436.500
 11 11  3 15 31 35.0000000  0  9G01G03G06G11G14G19G20G22G32                                     
  20867730.000     -343563.700    20867730.000     -264454.700
  23376510.000      776853.700    23376510.000      593321.500
  24522870.000      454591.400    24522880.000      350329.000
  20184350.000     -422834.000    20184350.000     -325572.100
  23563060.000     -131805.200    23563070.000     -100380.000
  21219660.000      491604.900    21219660.000      365860.100
  21752940.000     -672559.300    21752940.000     -515611.200
  24595160.000      582969.200    24595160.000      415627.500
  20481500.000     -926819.000    20481500.000     -245186.700
 11 11  3 15 31 36.0000000  0  9G01G03G06G11G14G19G20G22G32                                     
  20867530.000     -344595.600    20867530.000     -265258.800
  23377170.000      780324.300    23377170.000      596025.900
  24523490.000      457841.600    24523500.000      352861.600
  20184310.000     -423065.300    20184300.000     -325752.300
  23563060.000     -131855.800    23563060.000     -100419.400
  21220000.000      493392.200    21220000.000      367252.700
  21752400.000     -675378.900    21752400.000     -517808.300
  24595790.000      586251.300    24595790.000      418184.900
  20481280.000     -927941.300    20481290.000     -246061.200
 11 11  3 15 31 37.0000000  0  9G01G03G06G11G14G19G20G22G32                                     
  20867330.000     -345627.200    20867340.000     -266062.600
  23377830.000      783795.100    23377830.000      598730.400
  24524110.000      461092.000    24524120.000      355394.400
  20184260.000     -423296.200    20184260.000     -325932.300
  23563050.000     -131905.800    23563050.000     -100458.400
  21220340.000      495179.900    21220340.000      368645.800
  21751860.000     -678198.200    21751860.000     -520005.100
  24596410.000      589533.500    24596410.000      420742.500
  20481070.000     -929063.000    20481070.000     -246935.200
 11 11  3 15 31 38.0000000  0  9G01G03G06G11G14G19G20G22G32                                     
  20867140.000     -346658.200    20867140.000     -266866.000
  23378490.000      787266.600    23378490.000      601435.400
  24524730.000      464343.000    24524730.000      357927.600
  20184220.000     -423526.400    20184220.000     -326111.600
  23563040.000     -131954.800    23563040.000     -100496.600
  21220690.000      496968.500    21220680.000      370039.400
  21751330.000     -681016.700    21751330.000     -522201.400
  24597040.000      592816.300    24597040.000      423300.500
  20480860.000     -930183.600    20480860.000     -247808.500
 11 11  3 15 31 39.0000000  0  9G01G03G06G11G14G19G20G22G32                                     
  20866940.000     -347688.800    20866940.000     -267669.000
  23379150.000      790738.300    23379150.000      604140.700
  24525350.000      467594.300    24525350.000      360461.100
  20184170.000     -423756.100    20184170.000     -326290.600
  23563030.000     -132003.100    23563030.000     -100534.200
  21221030.000      498757.500    21221030.000      371433.500
  21750790.000     -683834.700    21750790.000     -524397.200
  24597660.000      596099.200    24597660.000      425858.700
  20480640.000     -931303.600    20480650.000     -248681.100
 11 11  3 15 31 41.0000000  0  9G01G03G06G11G14G19G20G22G32                                     
  20866550.000     -349750.100    20866550.000     -269275.200
  23380470.000      797681.500    23380480.000      609550.900
  24526580.000      474096.400    24526590.000      365527.600
  20184090.000     -424215.200    20184090.000     -326648.400
  23563010.000     -132098.700    23563010.000     -100608.700
  21221710.000      502336.100    21221710.000      374222.000
  21749720.000     -689470.200    21749720.000     -528788.500
  24598910.000      602664.600    24598910.000      430974.600
  20480220.000     -933542.400    20480220.000     -250425.700
 11 11  3 15 31 42.0000000  0  9G01G03G06G11G14G19G20G22G32                                     
  20866350.000     -350780.100    20866360.000     -270077.900
  23381130.000      801153.500    23381140.000      612256.400
  24527200.000      477347.800    24527210.000      368061.200
  20184040.000     -424444.100    20184040.000     -326826.700
  23563000.000     -132145.500    23563000.000     -100645.200
  21222050.000      504126.100    21222050.000      375616.800
  21749180.000     -692287.300    21749180.000     -530983.700
  24599530.000      605947.700    24599540.000      433532.800
  20480010.000     -934660.700    20480010.000     -251297.100
 11 11  3 15 31 43.0000000  0  9G01G03G06G11G14G19G20G22G32                                     
  20866160.000     -351809.900    20866160.000     -270880.300
  23381790.000      804625.800    23381800.000      614962.000
  24527820.000      480599.500    24527830.000      370595.000
  20184000.000     -424672.600    20184000.000     -327004.700
  23562990.000     -132191.600    23562990.000     -100681.100
  21222390.000      505916.600    21222390.000      377012.000
  21748650.000     -695103.900    21748650.000     -533178.400
  24600160.000      609230.900    24600160.000      436091.100
  20479790.000     -935778.400    20479790.000     -252168.000
 11 11  3 15 31 44.0000000  0  9G01G03G06G11G14G19G20G22G32                                     
  20865960.000     -352839.700    20865960.000     -271682.700
  23382450.000      808098.000    23382460.000      617667.600
  24528440.000      483851.100    24528450.000      373128.600
  20183960.000     -424900.900    20183960.000     -327182.700
  23562980.000     -132237.400    23562990.000     -100716.800
  21222730.000      507707.200    21222730.000      378407.300
  21748110.000     -697920.400    21748110.000     -535373.100
  24600780.000      612513.900    24600790.000      438649.300
  20479580.000     -936895.700    20479580.000     -253038.600
 11 11  3 15 31 45.0000000  0  9G01G03G06G11G14G19G20G22G32                                     
  20865760.000     -353868.800    20865770.000     -272484.600
  23383110.000      811570.700    23383120.000      620373.700
  24529060.000      487103.200    24529070.000      375662.700
  20183910.000     -425128.600    20183910.000     -327360.100
  23562970.000     -132282.100    23562980.000     -100751.600
  21223070.000      509498.700    21223070.000      379803.200
  21747570.000     -700736.100    21747580.000     -537567.100
  24601410.000      615797.400    24601410.000      441207.900
  20479370.000     -938011.900    20479370.000     -253908.500
 11 11  3 15 31 46.0000000  0  9G01G03G06G11G14G19G20G22G32                                     
  20865570.000     -354897.600    20865570.000     -273286.300
  23383780.000      815043.700    23383780.000      623079.900
  24529680.000      490355.500    24529680.000      378197.000
  20183870.000     -425355.800    20183870.000     -327537.100
  23562970.000     -132326.300    23562970.000     -100786.000
  21223410.000      511290.600    21223410.000      381199.500
  21747040.000     -703551.300    21747040.000     -539760.800
  24602030.000      619081.100    24602040.000      443766.600
  20479160.000     -939127.600    20479160.000     -254777.800
 11 11  3 15 31 47.0000000  0  9G01G03G06G11G14G19G20G22G32                                     
  20865370.000     -355926.500    20865380.000     -274088.000
  23384440.000      818516.600    23384440.000      625786.000
  24530300.000      493607.700    24530300.000      380731.100
  20183830.000     -425582.900    20183830.000     -327714.100
  23562960.000     -132370.100    23562960.000     -100820.200
  21223750.000      513082.600    21223750.000      382595.900
  21746500.000     -706366.500    21746500.000     -541954.500
  24602660.000      622364.600    24602660.000      446325.200
  20478940.000     -940242.900    20478940.000     -255646.800
 11 11  3 15 31 48.0000000  0  9G01G03G06G11G14G19G20G22G32                                     
  20865180.000     -356954.700    20865180.000     -274889.200
  23385100.000      821990.100    23385100.000      628492.600
  24530920.000      496860.400    24530920.000      383265.600
  20183780.000     -425809.300    20183780.000     -327890.500
  23562950.000     -132413.000    23562950.000     -100853.600
  21224090.000      514875.500    21224090.000      383992.900
  21745970.000     -709180.900    21745970.000     -544147.500
  24603280.000      625648.500    24603290.000      448884.100
  20478730.000     -941357.100    20478730.000     -256515.100
 11 11  3 15 31 49.0000000  0  9G01G03G06G11G14G19G20G22G32                                     
  20864980.000     -357982.700    20864990.000     -275690.200
  23385760.000      825463.700    23385760.000      631199.300
  24531530.000      500113.200    24531540.000      385800.300
  20183740.000     -426035.400    20183740.000     -328066.700
  23562940.000     -132455.300    23562940.000     -100886.500
  21224430.000      516668.600    21224430.000      385390.200
  21745430.000     -711995.000    21745430.000     -546340.300
  24603910.000      628932.500    24603910.000      451443.100
  20478520.000     -942470.900    20478520.000     -257383.000
 11 11  3 15 31 50.0000000  0  9G01G03G06G11G14G19G20G22G32                                     
  20864790.000     -359011.000    20864790.000     -276491.500
  23386420.000      828936.900    23386420.000      633905.700
  24532150.000      503365.600    24532160.000      388334.600
  20183700.000     -426261.700    20183700.000     -328243.000
  23562930.000     -132497.500    23562940.000     -100919.500
  21224780.000      518461.600    21224770.000      386787.300
  21744900.000     -714809.200    21744900.000     -548533.200
  24604530.000      632216.100    24604540.000      454001.700
  20478310.000     -943584.600    20478310.000     -258250.700
 11 11  3 15 31 51.0000000  0  9G01G03G06G11G14G19G20G22G32                                     
  20864590.000     -360039.100    20864590.000     -277292.600
  23387080.000      832410.200    23387080.000      636612.200
  24532770.000      506618.100    24532780.000      390869.000
  20183650.000     -426487.700    20183650.000     -328419.100
  23562920.000     -132539.200    23562930.000     -100952.000
  21225120.000      520255.000    21225120.000      388184.800
  21744360.000     -717623.100    21744360.000     -550725.800
  24605160.000      635499.800    24605160.000      456560.400
  20478100.000     -944697.700    20478100.000     -259118.100
 11 11  3 15 31 52.0000000  0  9G01G03G06G11G14G19G20G22G32                                     
  20864400.000     -361066.600    20864400.000     -278093.300
  23387740.000      835884.100    23387740.000      639319.100
  24533390.000      509871.000    24533400.000      393403.700
  20183610.000     -426713.100    20183610.000     -328594.700
  23562920.000     -132580.100    23562920.000     -100983.800
  21225460.000      522049.100    21225460.000      389582.800
  21743830.000     -720436.300    21743830.000     -552917.900
  24605780.000      638783.800    24605790.000      459119.400
  20477880.000     -945809.900    20477890.000     -259984.800
 11 11  3 15 31 53.0000000  0  9G01G03G06G11G14G19G20G22G32                                     
  20864200.000     -362093.500    20864200.000     -278893.500
  23388400.000      839358.500    23388410.000      642026.400
  24534010.000      513124.500    24534020.000      395938.900
  20183570.000     -426937.600    20183570.000     -328769.700
  23562910.000     -132619.900    23562910.000     -101014.800
  21225800.000      523844.000    21225800.000      390981.400
  21743290.000     -723248.700    21743290.000     -555109.400
  24606410.000      642068.300    24606410.000      461678.700
  20477670.000     -946921.000    20477670.000     -260850.600
 11 11  3 15 31 55.0000000  0  9G01G03G06G11G14G19G20G22G32                                     
  20863810.000     -364147.200    20863810.000     -280493.800
  23389720.000      846307.100    23389730.000      647440.900
  24535250.000      519631.300    24535260.000      401009.000
  20183480.000     -427386.500    20183480.000     -329119.500
  23562890.000     -132698.500    23562900.000     -101076.000
  21226480.000      527434.300    21226480.000      393779.000
  21742220.000     -728873.100    21742220.000     -559492.000
  24607660.000      648637.000    24607660.000      466797.200
  20477250.000     -949142.300    20477250.000     -262581.400
 11 11  3 15 31 56.0000000  0  9G01G03G06G11G14G19G20G22G32                                     
  20863610.000     -365174.300    20863620.000     -281294.100
  23390390.000      849781.100    23390390.000      650147.900
  24535870.000      522884.300    24535870.000      403543.900
  20183440.000     -427610.900    20183440.000     -329294.300
  23562890.000     -132737.400    23562890.000     -101106.400
  21226820.000      529229.600    21226820.000      395177.900
  21741680.000     -731685.200    21741690.000     -561683.300
  24608280.000      651920.900    24608290.000      469356.100
  20477040.000     -950252.600    20477040.000     -263446.600
 11 11  3 15 31 57.0000000  0  9G01G03G06G11G14G19G20G22G32                                     
  20863420.000     -366200.600    20863420.000     -282093.800
  23391050.000      853255.800    23391050.000      652855.400
  24536490.000      526137.900    24536490.000      406079.100
  20183400.000     -427834.600    20183400.000     -329468.600
  23562880.000     -132775.400    23562880.000     -101136.000
  21227170.000      531025.600    21227170.000      396577.400
  21741150.000     -734496.600    21741150.000     -563874.000
  24608910.000      655205.300    24608910.000      471915.400
  20476830.000     -951361.800    20476830.000     -264310.900
 11 11  3 15 31 58.0000000  0  9G01G03G06G11G14G19G20G22G32                                     
  20863220.000     -367226.800    20863230.000     -282893.500
  23391710.000      856730.500    23391710.000      655563.000
  24537110.000      529391.600    24537110.000      408614.500
  20183360.000     -428057.900    20183350.000     -329642.700
  23562870.000     -132812.800    23562880.000     -101165.100
  21227510.000      532822.000    21227510.000      397977.200
  21740610.000     -737307.600    21740620.000     -566064.400
  24609530.000      658489.800    24609540.000      474474.700
  20476620.000     -952470.500    20476620.000     -265174.800
 11 11  3 15 31 59.0000000  0  9G01G03G06G11G14G19G20G22G32                                     
  20863030.000     -368252.700    20863030.000     -283692.900
  23392370.000      860205.500    23392370.000      658270.800
  24537730.000      532645.500    24537730.000      411149.900
  20183310.000     -428280.900    20183310.000     -329816.400
  23562870.000     -132849.600    23562870.000     -101193.800
  21227850.000      534618.800    21227850.000      399377.300
  21740080.000     -740118.200    21740080.000     -568254.500
  24610160.000      661774.400    24610160.000      477034.200
  20476410.000     -953578.500    20476410.000     -266038.200
 11 11  3 15 32  0.0000000  0  9G01G03G06G11G14G19G20G22G32                                     
  20862830.000     -369277.900    20862840.000     -284491.700
  23393030.000      863681.100    23393030.000      660979.000
  24538340.000      535900.000    24538350.000      413685.900
  20183270.000     -428503.000    20183270.000     -329989.500
  23562860.000     -132885.300    23562860.000     -101221.600
  21228190.000      536416.500    21228190.000      400778.100
  21739540.000     -742928.000    21739550.000     -570443.900
  24610780.000      665059.600    24610790.000      479594.000
  20476190.000     -954685.500    20476200.000     -266900.800
 11 11  3 15 32  1.0000000  0  9G01G03G06G11G14G19G20G22G32                                     
  20862640.000     -370302.900    20862640.000     -285290.400
  23393690.000      867156.800    23393700.000      663687.400
  24538960.000      539154.600    24538970.000      416221.900
  20183230.000     -428725.000    20183230.000     -330162.400
  23562850.000     -132920.500    23562860.000     -101249.100
  21228530.000      538214.500    21228530.000      402179.100
  21739010.000     -745737.500    21739010.000     -572633.100
  24611410.000      668344.800    24611410.000      482153.900
  20475980.000     -955791.900    20475990.000     -267763.000
 11 11  3 15 32  2.0000000  0  9G01G03G06G11G14G19G20G22G32                                     
  20862440.000     -371327.700    20862450.000     -286088.900
  23394350.000      870632.700    23394360.000      666395.800
  24539580.000      542409.200    24539590.000      418757.900
  20183190.000     -428946.600    20183190.000     -330335.100
  23562850.000     -132955.200    23562850.000     -101276.100
  21228880.000      540012.900    21228880.000      403580.500
  21738480.000     -748546.600    21738480.000     -574822.000
  24612030.000      671630.100    24612040.000      484713.900
  20475770.000     -956897.800    20475780.000     -268624.700
 11 11  3 15 32  3.0000000  0  9G01G03G06G11G14G19G20G22G32                                     
  20862250.000     -372352.200    20862250.000     -286887.200
  23395010.000      874108.700    23395020.000      669104.400
  24540200.000      545664.100    24540210.000      421294.200
  20183140.000     -429167.700    20183140.000     -330507.500
  23562840.000     -132989.200    23562840.000     -101302.600
  21229220.000      541811.700    21229220.000      404982.200
  21737940.000     -751355.300    21737940.000     -577010.600
  24612660.000      674915.500    24612660.000      487273.900
  20475560.000     -958003.000    20475570.000     -269485.900
 11 11  3 15 32  4.0000000  0  9G01G03G06G11G14G19G20G22G32                                     
  20862050.000     -373376.800    20862060.000     -287685.600
  23395680.000      877584.600    23395680.000      671812.900
  24540820.000      548918.700    24540830.000      423830.200
  20183100.000     -429388.900    20183100.000     -330679.800
  23562830.000     -133023.000    23562840.000     -101328.900
  21229560.000      543610.600    21229560.000      406383.900
  21737410.000     -754163.900    21737410.000     -579199.100
  24613280.000      678200.600    24613290.000      489833.800
  20475350.000     -959107.900    20475350.000     -270346.900
 11 11  3 15 32  5.0000000  0  9G01G03G06G11G14G19G20G22G32                                     
  20861860.000     -374401.600    20861860.000     -288484.200
  23396340.000      881060.200    23396340.000      674521.100
  24541440.000      552173.000    24541450.000      426366.100
  20183060.000     -429610.200    20183060.000     -330852.300
  23562830.000     -133056.700    23562830.000     -101355.200
  21229900.000      545409.400    21229900.000      407785.500
  21736870.000     -756972.700    21736870.000     -581387.800
  24613910.000      681485.400    24613910.000      492393.300
  20475140.000     -960212.800    20475140.000     -271207.800
 11 11  3 15 32  6.0000000  0  9G01G03G06G11G14G19G20G22G32                                     
  20861660.000     -375426.000    20861670.000     -289282.500
  23397000.000      884536.100    23397000.000      677229.600
  24542060.000      555427.600    24542070.000      428902.100
  20183020.000     -429831.100    20183020.000     -331024.400
  23562820.000     -133089.700    23562820.000     -101380.900
  21230250.000      547208.700    21230250.000      409187.600
  21736340.000     -759780.900    21736340.000     -583576.000
  24614530.000      684770.300    24614540.000      494953.000
  20474930.000     -961316.900    20474930.000     -272068.100
 11 11  3 15 32  7.0000000  0  9G01G03G06G11G14G19G20G22G32                                     
  20861470.000     -376450.300    20861470.000     -290080.600
  23397660.000      888012.100    23397660.000      679938.200
  24542680.000      558682.300    24542690.000      431438.200
  20182980.000     -430051.600    20182980.000     -331196.200
  23562810.000     -133122.100    23562820.000     -101406.100
  21230590.000      549008.400    21230590.000      410589.900
  21735800.000     -762588.900    21735810.000     -585764.000
  24615160.000      688055.400    24615160.000      497512.800
  20474720.000     -962420.400    20474720.000     -272928.000
 11 11  3 15 32  8.0000000  0  9G01G03G06G11G14G19G20G22G32                                     
  20861270.000     -377474.200    20861280.000     -290878.400
  23398320.000      891488.400    23398330.000      682646.900
  24543300.000      561937.200    24543310.000      433974.500
  20182930.000     -430271.700    20182930.000     -331367.700
  23562810.000     -133153.900    23562810.000     -101430.900
  21230930.000      550808.500    21230930.000      411992.700
  21735270.000     -765396.300    21735270.000     -587951.600
  24615780.000      691340.600    24615790.000      500072.700
  20474510.000     -963523.200    20474510.000     -273787.300
 11 11  3 15 32  9.0000000  0  9G01G03G06G11G14G19G20G22G32                                     
  20861080.000     -378497.600    20861080.000     -291675.900
  23398980.000      894965.000    23398990.000      685356.000
  24543920.000      565192.500    24543930.000      436511.000
  20182890.000     -430491.300    20182890.000     -331538.800
  23562800.000     -133184.800    23562800.000     -101455.000
  21231270.000      552609.300    21231270.000      413395.900
  21734740.000     -768203.200    21734740.000     -590138.800
  24616410.000      694626.100    24616410.000      502632.900
  20474300.000     -964625.200    20474300.000     -274646.000
 11 11  3 15 32 10.0000000  0  9G01G03G06G11G14G19G20G22G32                                     
  20860880.000     -379520.700    20860890.000     -292473.100
  23399650.000      898442.000    23399650.000      688065.300
  24544540.000      568448.100    24544550.000      439047.800
  20182850.000     -430710.400    20182850.000     -331709.500
  23562800.000     -133215.100    23562800.000     -101478.600
  21231620.000      554410.600    21231620.000      414799.500
  21734200.000     -771009.500    21734200.000     -592325.500
  24617030.000      697911.800    24617040.000      505193.200
  20474090.000     -965726.500    20474100.000     -275504.100
 11 11  3 15 32 11.0000000  0  9G01G03G06G11G14G19G20G22G32                                     
  20860690.000     -380543.400    20860690.000     -293270.000
  23400310.000      901919.200    23400310.000      690774.900
  24545160.000      571703.900    24545170.000      441584.800
  20182810.000     -430929.000    20182810.000     -331879.800
  23562790.000     -133244.600    23562790.000     -101501.600
  21231960.000      556212.500    21231960.000      416203.500
  21733670.000     -773815.300    21733670.000     -594511.900
  24617660.000      701197.800    24617660.000      507753.700
  20473880.000     -966827.000    20473890.000     -276361.700
 11 11  3 15 32 12.0000000  0  9G01G03G06G11G14G19G20G22G32                                     
  20860490.000     -381565.800    20860500.000     -294066.700
  23400970.000      905396.700    23400970.000      693484.600
  24545780.000      574960.000    24545780.000      444122.000
  20182770.000     -431147.100    20182770.000     -332049.800
  23562790.000     -133273.400    23562790.000     -101524.000
  21232300.000      558014.800    21232300.000      417607.900
  21733130.000     -776620.700    21733140.000     -596697.900
  24618290.000      704483.900    24618290.000      510314.300
  20473680.000     -967926.800    20473680.000     -277218.700
 11 11  3 15 32 13.0000000  0  9G01G03G06G11G14G19G20G22G32                                     
  20860300.000     -382588.000    20860300.000     -294863.200
  23401630.000      908874.300    23401630.000      696194.400
  24546400.000      578216.100    24546400.000      446659.200
  20182730.000     -431365.000    20182730.000     -332219.600
  23562780.000     -133301.800    23562780.000     -101546.100
  21232650.000      559817.400    21232640.000      419012.600
  21732600.000     -779425.800    21732600.000     -598883.600
  24618910.000      707770.100    24618910.000      512874.900
  20473470.000     -969026.200    20473470.000     -278075.300
 11 11  3 15 32 14.0000000  0  9G01G03G06G11G14G19G20G22G32                                     
  20860110.000     -383609.900    20860110.000     -295659.500
  23402290.000      912352.100    23402300.000      698904.400
  24547020.000      581472.300    24547020.000      449196.500
  20182690.000     -431582.500    20182680.000     -332389.100
  23562770.000     -133329.500    23562780.000     -101567.700
  21232990.000      561620.500    21232990.000      420417.600
  21732070.000     -782230.400    21732070.000     -601069.100
  24619540.000      711056.400    24619540.000      515435.700
  20473260.000     -970124.900    20473260.000     -278931.500
 11 11  3 15 32 15.0000000  0  9G01G03G06G11G14G19G20G22G32                                     
  20859910.000     -384631.500    20859910.000     -296455.600
  23402950.000      915830.100    23402960.000      701614.500
  24547640.000      584728.800    24547640.000      451734.000
  20182640.000     -431799.600    20182640.000     -332558.300
  23562770.000     -133356.600    23562770.000     -101588.800
  21233330.000      563424.000    21233330.000      421822.900
  21731530.000     -785034.600    21731530.000     -603254.200
  24620160.000      714342.800    24620160.000      517996.500
  20473050.000     -971222.900    20473050.000     -279787.100
 11 11  3 15 32 16.0000000  0  9G01G03G06G11G14G19G20G22G32                                     
  20859720.000     -385653.100    20859720.000     -297251.600
  23403620.000      919308.100    23403620.000      704324.600
  24548260.000      587985.200    24548260.000      454271.400
  20182600.000     -432016.600    20182600.000     -332727.400
  23562760.000     -133383.300    23562770.000     -101609.600
  21233670.000      565227.800    21233670.000      423228.400
  21731000.000     -787838.700    21731000.000     -605439.200
  24620790.000      717629.100    24620790.000      520557.300
  20472840.000     -972320.500    20472840.000     -280642.400
 11 11  3 15 32 17.0000000  0  9G01G03G06G11G14G19G20G22G32                                     
  20859520.000     -386674.100    20859530.000     -298047.200
  23404280.000      922786.600    23404280.000      707035.100
  24548880.000      591242.000    24548880.000      456809.200
  20182560.000     -432232.900    20182560.000     -332895.900
  23562760.000     -133409.100    23562760.000     -101629.700
  21234020.000      567032.200    21234020.000      424634.500
  21730470.000     -790642.000    21730470.000     -607623.600
  24621410.000      720915.800    24621420.000      523118.400
  20472630.000     -973417.200    20472630.000     -281496.900
 11 11  3 15 32 18.0000000  0  9G01G03G06G11G14G19G20G22G32                                     
  20859330.000     -387694.400    20859330.000     -298842.200
  23404940.000      926265.700    23404940.000      709746.100
  24549500.000      594499.500    24549500.000      459347.400
  20182520.000     -432448.400    20182520.000     -333063.800
  23562750.000     -133433.900    23562760.000     -101649.000
  21234360.000      568837.500    21234360.000      426041.200
  21729930.000     -793444.500    21729930.000     -609807.300
  24622040.000      724203.100    24622040.000      525679.800
  20472420.000     -974512.800    20472420.000     -282350.700
 11 11  3 15 32 19.0000000  0  9G01G03G06G11G14G19G20G22G32                                     
  20859130.000     -388714.800    20859140.000     -299637.400
  23405600.000      929744.700    23405610.000      712457.000
  24550120.000      597756.800    24550120.000      461885.500
  20182480.000     -432663.900    20182480.000     -333231.700
  23562750.000     -133458.400    23562750.000     -101668.100
  21234710.000      570642.800    21234700.000      427448.000
  21729400.000     -796247.000    21729400.000     -611991.100
  24622660.000      727490.100    24622670.000      528241.200
  20472210.000     -975608.200    20472210.000     -283204.200
 11 11  3 15 32 20.0000000  0  9G01G03G06G11G14G19G20G22G32                                     
  20858940.000     -389735.200    20858940.000     -300432.500
  23406260.000      933223.600    23406270.000      715167.800
  24550740.000      601013.900    24550740.000      464423.600
  20182440.000     -432879.300    20182440.000     -333399.600
  23562750.000     -133482.500    23562750.000     -101687.000
  21235050.000      572448.400    21235050.000      428854.900
  21728870.000     -799049.300    21728870.000     -614174.700
  24623290.000      730777.000    24623290.000      530802.400
  20472010.000     -976703.200    20472010.000     -284057.400
 11 11  3 15 32 22.0000000  0  9G01G03G06G11G14G19G20G22G32                                     
  20858550.000     -391775.800    20858550.000     -302022.500
  23407590.000      940181.300    23407590.000      720589.400
  24551980.000      607528.200    24551980.000      469499.600
  20182360.000     -433309.500    20182360.000     -333734.800
  23562740.000     -133529.600    23562740.000     -101723.700
  21235740.000      576060.100    21235740.000      431669.200
  21727800.000     -804653.300    21727800.000     -618541.500
  24624540.000      737350.500    24624540.000      535924.600
  20471590.000     -978891.900    20471590.000     -285762.900
 11 11  3 15 32 23.0000000  0  9G01G03G06G11G14G19G20G22G32                                     
  20858360.000     -392795.800    20858360.000     -302817.400
  23408250.000      943660.300    23408250.000      723300.300
  24552600.000      610785.400    24552600.000      472037.600
  20182320.000     -433524.200    20182310.000     -333902.100
  23562730.000     -133552.400    23562730.000     -101741.400
  21236080.000      577866.400    21236080.000      433076.700
  21727270.000     -807454.900    21727270.000     -620724.500
  24625160.000      740637.200    24625170.000      538485.700
  20471380.000     -979985.400    20471380.000     -286615.000
 11 11  3 15 32 24.0000000  0  9G01G03G06G11G14G19G20G22G32                                     
  20858160.000     -393815.300    20858170.000     -303611.800
  23408910.000      947139.800    23408920.000      726011.500
  24553220.000      614043.000    24553220.000      474576.100
  20182280.000     -433738.300    20182270.000     -334068.900
  23562730.000     -133574.300    23562730.000     -101758.400
  21236420.000      579673.400    21236420.000      434484.800
  21726730.000     -810255.800    21726730.000     -622907.000
  24625790.000      743924.400    24625790.000      541047.100
  20471170.000     -981078.100    20471170.000     -287466.400
 11 11  3 15 32 25.0000000  0  9G01G03G06G11G14G19G20G22G32                                     
  20857970.000     -394834.500    20857970.000     -304405.900
  23409570.000      950619.500    23409580.000      728723.000
  24553840.000      617300.900    24553840.000      477114.600
  20182230.000     -433952.000    20182230.000     -334235.500
  23562720.000     -133595.500    23562730.000     -101775.000
  21236770.000      581480.900    21236770.000      435893.200
  21726200.000     -813056.200    21726200.000     -625089.200
  24626420.000      747211.700    24626420.000      543608.700
  20470960.000     -982170.100    20470970.000     -288317.300
 11 11  3 15 32 26.0000000  0  9G01G03G06G11G14G19G20G22G32                                     
  20857780.000     -395853.300    20857780.000     -305199.800
  23410240.000      954099.500    23410240.000      731434.700
  24554460.000      620559.000    24554460.000      479653.400
  20182190.000     -434165.200    20182190.000     -334401.600
  23562720.000     -133616.100    23562720.000     -101791.000
  21237110.000      583288.900    21237110.000      437302.000
  21725670.000     -815856.200    21725670.000     -627270.900
  24627040.000      750499.200    24627040.000      546170.400
  20470760.000     -983261.400    20470760.000     -289167.700
 11 11  3 15 32 27.0000000  0  9G01G03G06G11G14G19G20G22G32                                     
  20857580.000     -396871.700    20857590.000     -305993.400
  23410900.000      957579.900    23410900.000      734146.600
  24555080.000      623817.500    24555080.000      482192.400
  20182150.000     -434377.900    20182150.000     -334567.300
  23562720.000     -133635.800    23562720.000     -101806.400
  21237460.000      585097.500    21237460.000      438711.300
  21725130.000     -818655.500    21725140.000     -629452.300
  24627670.000      753787.000    24627670.000      548732.300
  20470550.000     -984351.800    20470550.000     -290017.400
 11 11  3 15 32 28.0000000  0  9G01G03G06G11G14G19G20G22G32                                     
  20857390.000     -397889.900    20857390.000     -306786.700
  23411560.000      961060.400    23411570.000      736858.700
  24555700.000      627076.000    24555700.000      484731.500
  20182110.000     -434590.300    20182110.000     -334732.800
  23562710.000     -133655.100    23562720.000     -101821.400
  21237800.000      586906.500    21237800.000      440120.900
  21724600.000     -821454.600    21724600.000     -631633.300
  24628290.000      757074.900    24628300.000      551294.200
  20470340.000     -985441.800    20470340.000     -290866.700
 11 11  3 15 32 29.0000000  0  9G01G03G06G11G14G19G20G22G32                                     
  20857190.000     -398907.900    20857200.000     -307580.000
  23412220.000      964540.900    23412230.000      739570.800
  24556320.000      630334.600    24556320.000      487270.700
  20182070.000     -434802.400    20182070.000     -334898.100
  23562710.000     -133673.800    23562710.000     -101836.000
  21238140.000      588715.700    21238140.000      441530.700
  21724070.000     -824253.300    21724070.000     -633814.200
  24628920.000      760362.700    24628920.000      553856.200
  20470130.000     -986531.200    20470140.000     -291715.600
 11 11  3 15 32 31.0000000  0  9G01G03G06G11G14G19G20G22G32                                     
  20856810.000     -400943.700    20856810.000     -309166.400
  23413550.000      971502.100    23413550.000      744995.100
  24557560.000      636851.700    24557560.000      492348.900
  20181990.000     -435226.100    20181990.000     -335228.200
  23562700.000     -133710.000    23562700.000     -101864.200
  21238830.000      592334.900    21238830.000      444350.900
  21723000.000     -829850.200    21723010.000     -638175.300
  24630170.000      766938.200    24630170.000      558979.900
  20469720.000     -988708.700    20469720.000     -293412.300
 11 11  3 15 32 32.0000000  0  9G01G03G06G11G14G19G20G22G32                                     
  20856610.000     -401961.800    20856620.000     -309959.700
  23414210.000      974982.400    23414210.000      747707.000
  24558180.000      640109.900    24558180.000      494887.800
  20181950.000     -435437.900    20181950.000     -335393.300
  23562700.000     -133727.700    23562700.000     -101878.000
  21239180.000      594144.600    21239180.000      445761.000
  21722470.000     -832648.500    21722470.000     -640355.900
  24630800.000      770225.500    24630800.000      561541.500
  20469510.000     -989797.000    20469510.000     -294260.400
 11 11  3 15 32 33.0000000  0  9G01G03G06G11G14G19G20G22G32                                     
  20856420.000     -402979.300    20856420.000     -310752.500
  23414870.000      978463.200    23414880.000      750419.300
  24558800.000      643368.600    24558800.000      497427.000
  20181910.000     -435649.100    20181910.000     -335557.900
  23562700.000     -133744.600    23562700.000     -101891.100
  21239520.000      595955.000    21239520.000      447171.700
  21721940.000     -835446.200    21721940.000     -642535.900
  24631420.000      773513.200    24631420.000      564103.400
  20469310.000     -990884.500    20469310.000     -295107.800
 11 11  3 15 32 34.0000000  0  9G01G03G06G11G14G19G20G22G32                                     
  20856230.000     -403996.000    20856230.000     -311544.700
  23415540.000      981944.700    23415540.000      753132.200
  24559420.000      646628.000    24559420.000      499966.700
  20181870.000     -435859.400    20181870.000     -335721.700
  23562690.000     -133760.300    23562700.000     -101903.400
  21239870.000      597766.300    21239870.000      448583.100
  21721410.000     -838242.900    21721410.000     -644715.100
  24632050.000      776801.600    24632050.000      566665.700
  20469100.000     -991970.700    20469100.000     -295954.200
 11 11  3 15 32 36.0000000  0  9G01G03G06G11G14G19G20G22G32                                     
  20855840.000     -406028.300    20855840.000     -313128.400
  23416860.000      988908.500    23416860.000      758558.500
  24560660.000      653147.500    24560660.000      505046.800
  20181790.000     -436278.600    20181790.000     -336048.400
  23562690.000     -133789.600    23562690.000     -101926.200
  21240560.000      601390.500    21240560.000      451407.200
  21720340.000     -843835.000    21720340.000     -649072.600
  24633300.000      783379.000    24633300.000      571790.900
  20468690.000     -994141.200    20468690.000     -297645.400
 11 11  3 15 32 37.0000000  0  9G01G03G06G11G14G19G20G22G32                                     
  20855650.000     -407044.400    20855650.000     -313920.100
  23417520.000      992390.500    23417530.000      761271.700
  24561280.000      656407.200    24561280.000      507586.800
  20181750.000     -436488.000    20181750.000     -336211.600
  23562680.000     -133803.700    23562690.000     -101937.200
  21240900.000      603202.900    21240900.000      452819.400
  21719810.000     -846630.700    21719810.000     -651251.100
  24633920.000      786667.500    24633930.000      574353.400
  20468480.000     -995225.800    20468480.000     -298490.600
 11 11  3 15 32 38.0000000  0  9G01G03G06G11G14G19G20G22G32                                     
  20855450.000     -408060.200    20855460.000     -314711.700
  23418190.000      995872.600    23418190.000      763985.100
  24561900.000      659667.100    24561900.000      510127.000
  20181710.000     -436697.000    20181710.000     -336374.400
  23562680.000     -133817.100    23562680.000     -101947.600
  21241250.000      605015.800    21241250.000      454232.100
  21719280.000     -849426.000    21719280.000     -653429.200
  24634550.000      789956.200    24634550.000      576916.000
  20468270.000     -996309.700    20468280.000     -299335.200
 11 11  3 15 32 40.0000000  0  9G01G03G06G11G14G19G20G22G32                                     
  20855070.000     -410091.100    20855070.000     -316294.200
  23419510.000     1002837.000    23419520.000      769412.100
  24563140.000      666187.200    24563150.000      515207.500
  20181630.000     -437113.900    20181630.000     -336699.300
  23562680.000     -133842.300    23562680.000     -101967.200
  21241940.000      608642.700    21241940.000      457058.200
  21718220.000     -855015.500    21718220.000     -657784.600
  24635800.000      796533.700    24635810.000      582041.400
  20467860.000     -998475.800    20467860.000     -301023.000
 11 11  3 15 32 41.0000000  0  9G01G03G06G11G14G19G20G22G32                                     
  20854870.000     -411106.200    20854880.000     -317085.200
  23420170.000     1006320.000    23420180.000      772125.800
  24563760.000      669447.400    24563770.000      517747.900
  20181590.000     -437321.900    20181590.000     -336861.400
  23562670.000     -133854.000    23562680.000     -101976.400
  21242280.000      610456.700    21242280.000      458471.700
  21717680.000     -857809.700    21717690.000     -659962.000
  24636430.000      799822.600    24636430.000      584604.200
  20467660.000     -999558.000    20467660.000     -301866.300
 11 11  3 15 32 42.0000000  0  9G01G03G06G11G14G19G20G22G32                                     
  20854680.000     -412120.700    20854680.000     -317875.700
  23420840.000     1009803.000    23420840.000      774839.800
  24564380.000      672708.100    24564390.000      520288.700
  20181550.000     -437529.300    20181550.000     -337022.900
  23562670.000     -133864.800    23562680.000     -101984.800
  21242630.000      612271.400    21242630.000      459885.700
  21717150.000     -860603.200    21717150.000     -662138.700
  24637050.000      803111.900    24637060.000      587167.200
  20467450.000    -1000639.000    20467450.000     -302708.800
 11 11  3 15 32 43.0000000  0  9G01G03G06G11G14G19G20G22G32                                     
  20854490.000     -413135.000    20854490.000     -318666.100
  23421500.000     1013286.000    23421500.000      777554.000
  24565000.000      675968.900    24565010.000      522829.600
  20181510.000     -437736.200    20181510.000     -337184.200
  23562670.000     -133875.000    23562670.000     -101992.800
  21242970.000      614086.500    21242970.000      461300.100
  21716620.000     -863396.300    21716620.000     -664315.200
  24637680.000      806401.300    24637680.000      589730.400
  20467240.000    -1001720.000    20467250.000     -303550.900
 11 11  3 15 32 44.0000000  0  9G01G03G06G11G14G19G20G22G32                                     
  20854290.000     -414149.200    20854300.000     -319456.300
  23422160.000     1016769.000    23422170.000      780268.300
  24565620.000      679229.800    24565630.000      525370.500
  20181470.000     -437943.000    20181470.000     -337345.300
  23562670.000     -133884.800    23562670.000     -102000.300
  21243320.000      615901.900    21243320.000      462714.700
  21716090.000     -866189.200    21716090.000     -666491.400
  24638310.000      809690.700    24638310.000      592293.600
  20467040.000    -1002800.000    20467040.000     -304392.500
 11 11  3 15 32 45.0000000  0  9G01G03G06G11G14G19G20G22G32                                     
  20854100.000     -415163.300    20854100.000     -320246.600
  23422830.000     1020253.000    23422830.000      782982.400
  24566240.000      682490.500    24566250.000      527911.300
  20181440.000     -438149.700    20181430.000     -337506.400
  23562670.000     -133894.200    23562670.000     -102007.700
  21243660.000      617717.400    21243660.000      464129.400
  21715560.000     -868981.900    21715560.000     -668667.600
  24638930.000      812979.800    24638930.000      594856.500
  20466830.000    -1003880.000    20466830.000     -305234.000
 11 11  3 15 32 46.0000000  0  9G01G03G06G11G14G19G20G22G32                                     
  20853910.000     -416177.100    20853910.000     -321036.500
  23423490.000     1023736.000    23423490.000      785696.900
  24566860.000      685751.600    24566870.000      530452.400
  20181400.000     -438355.800    20181390.000     -337667.000
  23562670.000     -133902.900    23562670.000     -102014.500
  21244010.000      619533.500    21244010.000      465544.600
  21715030.000     -871774.100    21715030.000     -670843.300
  24639560.000      816269.300    24639560.000      597419.800
  20466630.000    -1004959.000    20466630.000     -306074.700
 11 11  3 15 32 47.0000000  0  9G01G03G06G11G14G19G20G22G32                                     
  20853720.000     -417190.900    20853720.000     -321826.500
  23424150.000     1027220.000    23424160.000      788411.200
  24567480.000      689012.500    24567490.000      532993.300
  20181360.000     -438561.900    20181360.000     -337827.600
  23562660.000     -133911.200    23562670.000     -102021.000
  21244350.000      621349.800    21244350.000      466959.800
  21714490.000     -874566.200    21714500.000     -673018.900
  24640180.000      819558.600    24640190.000      599982.800
  20466420.000    -1006038.000    20466420.000     -306915.300
 11 11  3 15 32 48.0000000  0  9G01G03G06G11G14G19G20G22G32                                     
  20853520.000     -418204.600    20853530.000     -322616.400
  23424810.000     1030703.000    23424820.000      791125.500
  24568100.000      692273.300    24568110.000      535534.200
  20181320.000     -438767.800    20181320.000     -337988.000
  23562660.000     -133919.200    23562660.000     -102027.200
  21244700.000      623166.200    21244700.000      468375.200
  21713960.000     -877358.100    21713970.000     -675194.400
  24640810.000      822847.700    24640810.000      602545.800
  20466220.000    -1007116.000    20466220.000     -307755.500
 11 11  3 15 32 49.0000000  0  9G01G03G06G11G14G19G20G22G32                                     
  20853330.000     -419218.200    20853330.000     -323406.200
  23425480.000     1034186.000    23425480.000      793839.900
  24568720.000      695534.200    24568730.000      538075.100
  20181280.000     -438973.500    20181280.000     -338148.300
  23562660.000     -133926.700    23562660.000     -102033.000
  21245050.000      624982.900    21245050.000      469790.800
  21713430.000     -880149.700    21713430.000     -677369.700
  24641430.000      826136.900    24641440.000      605108.800
  20466010.000    -1008194.000    20466010.000     -308595.400
 11 11  3 15 32 50.0000000  0  9G01G03G06G11G14G19G20G22G32                                     
  20853140.000     -420231.300    20853140.000     -324195.700
  23426140.000     1037670.000    23426140.000      796554.600
  24569340.000      698795.500    24569350.000      540616.400
  20181240.000     -439178.600    20181240.000     -338308.100
  23562660.000     -133933.300    23562660.000     -102038.200
  21245390.000      626800.300    21245390.000      471206.900
  21712900.000     -882940.700    21712900.000     -679544.500
  24642060.000      829426.300    24642060.000      607672.000
  20465810.000    -1009271.000    20465810.000     -309434.500
 11 11  3 15 32 51.0000000  0  9G01G03G06G11G14G19G20G22G32                                     
  20852940.000     -421244.000    20852950.000     -324984.700
  23426800.000     1041155.000    23426810.000      799269.600
  24569960.000      702057.100    24569970.000      543157.900
  20181200.000     -439383.100    20181200.000     -338467.500
  23562660.000     -133939.200    23562660.000     -102042.700
  21245740.000      628618.300    21245740.000      472623.600
  21712370.000     -885731.100    21712370.000     -681718.800
  24642690.000      832716.100    24642690.000      610235.500
  20465600.000    -1010347.000    20465600.000     -310273.000
 11 11  3 15 32 53.0000000  0  9G01G03G06G11G14G19G20G22G32                                     
  20852560.000     -423268.200    20852560.000     -326562.100
  23428130.000     1048124.000    23428130.000      804700.300
  24571210.000      708581.100    24571210.000      548241.400
  20181120.000     -439790.800    20181120.000     -338785.200
  23562660.000     -133948.900    23562660.000     -102050.300
  21246430.000      632255.700    21246430.000      475457.900
  21711310.000     -891310.500    21711310.000     -686066.400
  24643940.000      839296.300    24643940.000      615362.900
  20465190.000    -1012497.000    20465200.000     -311948.500
 11 11  3 15 32 54.0000000  0  9G01G03G06G11G14G19G20G22G32                                     
  20852370.000     -424280.000    20852370.000     -327350.500
  23428790.000     1051609.000    23428800.000      807415.700
  24571830.000      711843.300    24571830.000      550783.400
  20181080.000     -439994.200    20181080.000     -338943.600
  23562660.000     -133952.800    23562660.000     -102053.300
  21246780.000      634075.000    21246780.000      476875.600
  21710780.000     -894099.600    21710780.000     -688239.700
  24644560.000      842586.500    24644570.000      617926.600
  20464990.000    -1013571.000    20464990.000     -312785.500
 11 11  3 15 32 55.0000000  0  9G01G03G06G11G14G19G20G22G32                                     
  20852170.000     -425291.700    20852180.000     -328138.800
  23429460.000     1055094.000    23429460.000      810131.200
  24572450.000      715105.400    24572450.000      553325.300
  20181050.000     -440197.400    20181040.000     -339102.000
  23562660.000     -133956.300    23562660.000     -102056.100
  21247120.000      635894.500    21247120.000      478293.400
  21710250.000     -896888.500    21710250.000     -690412.900
  24645190.000      845876.500    24645190.000      620490.300
  20464790.000    -1014645.000    20464790.000     -313622.100
 11 11  3 15 32 56.0000000  0  9G01G03G06G11G14G19G20G22G32                                     
  20851980.000     -426302.900    20851980.000     -328926.800
  23430120.000     1058579.000    23430120.000      812847.100
  24573070.000      718367.900    24573080.000      555867.500
  20181010.000     -440400.000    20181010.000     -339259.900
  23562650.000     -133959.100    23562660.000     -102058.200
  21247470.000      637714.700    21247470.000      479711.700
  21709720.000     -899676.800    21709720.000     -692585.600
  24645820.000      849166.900    24645820.000      623054.300
  20464580.000    -1015717.000    20464580.000     -314458.100
 11 11  3 15 32 57.0000000  0  9G01G03G06G11G14G19G20G22G32                                     
  20851790.000     -427313.700    20851790.000     -329714.400
  23430780.000     1062065.000    23430790.000      815563.100
  24573690.000      721630.800    24573700.000      558409.900
  20180970.000     -440602.100    20180970.000     -339417.300
  23562650.000     -133961.100    23562660.000     -102059.800
  21247820.000      639535.500    21247810.000      481130.500
  21709190.000     -902464.500    21709190.000     -694757.800
  24646440.000      852457.600    24646450.000      625618.500
  20464380.000    -1016790.000    20464380.000     -315293.500
 11 11  3 15 32 58.0000000  0  9G01G03G06G11G14G19G20G22G32                                     
  20851600.000     -428325.000    20851600.000     -330502.400
  23431440.000     1065550.000    23431450.000      818278.800
  24574310.000      724893.000    24574320.000      560951.900
  20180930.000     -440804.600    20180930.000     -339575.100
  23562650.000     -133963.200    23562660.000     -102061.400
  21248160.000      641355.900    21248160.000      482549.000
  21708660.000     -905252.600    21708660.000     -696930.400
  24647070.000      855747.700    24647070.000      628182.100
  20464170.000    -1017862.000    20464170.000     -316129.000
 11 11  3 15 32 59.0000000  0  9G01G03G06G11G14G19G20G22G32                                     
  20851400.000     -429335.800    20851410.000     -331290.000
  23432110.000     1069035.000    23432110.000      820994.700
  24574930.000      728155.600    24574940.000      563494.100
  20180890.000     -441006.500    20180890.000     -339732.400
  23562650.000     -133964.400    23562660.000     -102062.400
  21248510.000      643176.900    21248510.000      483968.000
  21708120.000     -908040.000    21708130.000     -699102.400
  24647700.000      859038.000    24647700.000      630746.000
  20463970.000    -1018933.000    20463970.000     -316963.900
 11 11  3 15 33  0.0000000  0  9G01G03G06G11G14G19G20G22G32                                     
  20851210.000     -430345.900    20851220.000     -332077.100
  23432770.000     1072521.000    23432780.000      823711.200
  24575550.000      731418.800    24575560.000      566036.900
  20180850.000     -441207.500    20180850.000     -339889.100
  23562650.000     -133964.700    23562660.000     -102062.600
  21248860.000      644998.800    21248850.000      485387.600
  21707590.000     -910826.600    21707600.000     -701273.800
  24648320.000      862328.900    24648330.000      633310.400
  20463770.000    -1020004.000    20463770.000     -317797.900
 11 11  3 15 33  1.0000000  0  9G01G03G06G11G14G19G20G22G32                                     
  20851020.000     -431356.100    20851020.000     -332864.300
  23433430.000     1076007.000    23433440.000      826427.500
  24576170.000      734681.800    24576180.000      568579.400
  20180820.000     -441408.600    20180810.000     -340045.800
  23562650.000     -133964.700    23562660.000     -102062.600
  21249200.000      646820.800    21249200.000      486807.300
  21707060.000     -913613.200    21707070.000     -703445.200
  24648950.000      865619.600    24648950.000      635874.500
  20463560.000    -1021074.000    20463560.000     -318631.700
 11 11  3 15 33  2.0000000  0  9G01G03G06G11G14G19G20G22G32                                     
  20850830.000     -432365.800    20850830.000     -333651.100
  23434100.000     1079494.000    23434100.000      829144.100
  24576790.000      737945.200    24576800.000      571122.300
  20180780.000     -441609.100    20180780.000     -340202.000
  23562650.000     -133963.900    23562660.000     -102061.900
  21249550.000      648643.400    21249550.000      488227.500
  21706530.000     -916399.200    21706540.000     -705616.000
  24649570.000      868910.500    24649580.000      638438.900
  20463360.000    -1022143.000    20463360.000     -319464.900
 11 11  3 15 33  3.0000000  0  9G01G03G06G11G14G19G20G22G32                                     
  20850640.000     -433374.800    20850640.000     -334437.300
  23434760.000     1082981.000    23434770.000      831861.200
  24577410.000      741209.200    24577420.000      573665.700
  20180740.000     -441808.800    20180740.000     -340357.600
  23562650.000     -133962.000    23562660.000     -102060.500
  21249900.000      650466.800    21249890.000      489648.400
  21706000.000     -919184.300    21706010.000     -707786.200
  24650200.000      872202.000    24650200.000      641003.700
  20463160.000    -1023211.000    20463160.000     -320297.200
 11 11  3 15 33  4.0000000  0  9G01G03G06G11G14G19G20G22G32                                     
  20850440.000     -434383.300    20850450.000     -335223.100
  23435430.000     1086468.000    23435430.000      834578.600
  24578040.000      744473.500    24578040.000      576209.300
  20180700.000     -442007.900    20180700.000     -340512.800
  23562650.000     -133959.200    23562660.000     -102058.400
  21250240.000      652290.900    21250240.000      491069.800
  21705470.000     -921968.800    21705480.000     -709956.000
  24650830.000      875493.900    24650830.000      643568.800
  20462950.000    -1024278.000    20462950.000     -321128.800
 11 11  3 15 33  5.0000000  0  9G01G03G06G11G14G19G20G22G32                                     
  20850250.000     -435391.700    20850260.000     -336009.000
  23436090.000     1089955.000    23436090.000      837296.000
  24578660.000      747737.800    24578660.000      578752.900
  20180660.000     -442206.900    20180660.000     -340667.800
  23562660.000     -133956.200    23562660.000     -102056.000
  21250590.000      654115.200    21250590.000      492491.300
  21704940.000     -924753.200    21704950.000     -712125.600
  24651450.000      878785.600    24651460.000      646133.800
  20462750.000    -1025345.000    20462750.000     -321960.200
 11 11  3 15 33  6.0000000  0  9G01G03G06G11G14G19G20G22G32                                     
  20850060.000     -436400.100    20850060.000     -336794.700
  23436750.000     1093443.000    23436760.000      840013.400
  24579280.000      751002.100    24579290.000      581296.500
  20180630.000     -442405.600    20180620.000     -340822.700
  23562660.000     -133952.700    23562660.000     -102053.200
  21250940.000      655939.800    21250940.000      493913.000
  21704410.000     -927537.300    21704420.000     -714295.000
  24652080.000      882077.300    24652080.000      648698.700
  20462550.000    -1026412.000    20462550.000     -322791.200
 11 11  3 15 33  8.0000000  0  9G01G03G06G11G14G19G20G22G32                                     
  20849680.000     -438416.600    20849680.000     -338366.000
  23438080.000     1100417.000    23438080.000      845448.300
  24580520.000      757530.700    24580530.000      586383.600
  20180550.000     -442802.600    20180550.000     -341132.000
  23562660.000     -133944.300    23562660.000     -102046.700
  21251630.000      659589.600    21251630.000      496757.100
  21703360.000     -933104.700    21703360.000     -718633.300
  24653330.000      888660.500    24653340.000      653828.500
  20462140.000    -1028543.000    20462140.000     -324452.100
 11 11  3 15 33  9.0000000  0  9G01G03G06G11G14G19G20G22G32                                     
  20849480.000     -439424.600    20849490.000     -339151.500
  23438740.000     1103905.000    23438750.000      848165.800
  24581140.000      760795.000    24581150.000      588927.200
  20180510.000     -443000.700    20180510.000     -341286.400
  23562660.000     -133939.400    23562660.000     -102042.900
  21251980.000      661415.000    21251980.000      498179.400
  21702830.000     -935888.100    21702830.000     -720802.100
  24653960.000      891952.000    24653960.000      656393.300
  20461940.000    -1029608.000    20461940.000     -325282.000
 11 11  3 15 33 10.0000000  0  9G01G03G06G11G14G19G20G22G32                                     
  20849290.000     -440432.500    20849300.000     -339936.800
  23439410.000     1107393.000    23439410.000      850883.400
  24581760.000      764059.300    24581770.000      591470.800
  20180470.000     -443198.600    20180470.000     -341440.600
  23562660.000     -133934.000    23562660.000     -102038.700
  21252330.000      663240.700    21252330.000      499602.000
  21702300.000     -938671.100    21702300.000     -722970.700
  24654590.000      895243.500    24654590.000      658958.100
  20461740.000    -1030673.000    20461740.000     -326111.500
 11 11  3 15 33 11.0000000  0  9G01G03G06G11G14G19G20G22G32                                     
  20849100.000     -441440.000    20849100.000     -340721.900
  23440070.000     1110880.000    23440080.000      853601.100
  24582380.000      767323.900    24582390.000      594014.600
  20180440.000     -443396.000    20180440.000     -341594.400
  23562660.000     -133928.000    23562660.000     -102034.000
  21252670.000      665066.800    21252670.000      501025.000
  21701770.000     -941453.700    21701770.000     -725139.000
  24655210.000      898535.200    24655220.000      661523.100
  20461530.000    -1031737.000    20461530.000     -326940.500
 11 11  3 15 33 12.0000000  0  9G01G03G06G11G14G19G20G22G32                                     
  20848910.000     -442447.500    20848910.000     -341507.000
  23440730.000     1114368.000    23440740.000      856318.900
  24583010.000      770588.500    24583010.000      596558.400
  20180400.000     -443593.300    20180400.000     -341748.200
  23562660.000     -133921.500    23562660.000     -102028.900
  21253020.000      666893.100    21253020.000      502448.100
  21701240.000     -944236.100    21701240.000     -727307.100
  24655840.000      901826.800    24655840.000      664088.000
  20461330.000    -1032800.000    20461330.000     -327769.100
 11 11  3 15 33 14.0000000  0  9G01G03G06G11G14G19G20G22G32                                     
  20848530.000     -444461.900    20848530.000     -343076.600
  23442060.000     1121344.000    23442070.000      861754.600
  24584250.000      777117.800    24584260.000      601646.200
  20180320.000     -443987.000    20180320.000     -342054.900
  23562660.000     -133907.000    23562670.000     -102017.600
  21253720.000      670546.800    21253720.000      505295.200
  21700180.000     -949799.900    21700180.000     -731642.500
  24657090.000      908410.200    24657090.000      669217.800
  20460930.000    -1034925.000    20460930.000     -329425.000
 11 11  3 15 33 15.0000000  0  9G01G03G06G11G14G19G20G22G32                                     
  20848330.000     -445468.500    20848340.000     -343861.000
  23442730.000     1124832.000    23442730.000      864472.800
  24584870.000      780382.900    24584880.000      604190.300
  20180290.000     -444183.100    20180290.000     -342207.700
  23562670.000     -133898.600    23562670.000     -102011.100
  21254060.000      672374.500    21254060.000      506719.300
  21699650.000     -952581.000    21699650.000     -733809.600
  24657720.000      911702.100    24657720.000      671783.000
  20460720.000    -1035987.000    20460730.000     -330252.100
 11 11  3 15 33 17.0000000  0  9G01G03G06G11G14G19G20G22G32                                     
  20847950.000     -447481.300    20847950.000     -345429.400
  23444050.000     1131809.000    23444060.000      869909.500
  24586110.000      786913.100    24586120.000      609278.800
  20180210.000     -444574.600    20180210.000     -342512.800
  23562670.000     -133880.400    23562670.000     -101996.900
  21254760.000      676030.700    21254760.000      509568.300
  21698590.000     -958142.300    21698590.000     -738143.100
  24658970.000      918286.100    24658970.000      676913.400
  20460320.000    -1038108.000    20460320.000     -331905.100
 11 11  3 15 33 18.0000000  0  9G01G03G06G11G14G19G20G22G32                                     
  20847760.000     -448487.200    20847760.000     -346213.200
  23444720.000     1135298.000    23444720.000      872628.100
  24586730.000      790178.600    24586740.000      611823.300
  20180180.000     -444769.700    20180170.000     -342664.800
  23562670.000     -133870.300    23562670.000     -101989.000
  21255110.000      677859.500    21255110.000      510993.400
  21698060.000     -960922.300    21698060.000     -740309.300
  24659600.000      921578.300    24659600.000      679478.800
  20460120.000    -1039168.000    20460120.000     -332730.900
 11 11  3 15 33 19.0000000  0  9G01G03G06G11G14G19G20G22G32                                     
  20847570.000     -449492.900    20847570.000     -346996.900
  23445380.000     1138787.000    23445390.000      875346.800
  24587360.000      793444.100    24587360.000      614367.900
  20180140.000     -444964.500    20180140.000     -342816.600
  23562670.000     -133859.700    23562680.000     -101980.700
  21255460.000      679688.700    21255460.000      512418.700
  21697530.000     -963701.900    21697530.000     -742475.200
  24660220.000      924870.600    24660230.000      682044.200
  20459920.000    -1040227.000    20459920.000     -333556.100
 11 11  3 15 33 20.0000000  0  9G01G03G06G11G14G19G20G22G32                                     
  20847380.000     -450498.000    20847380.000     -347780.100
  23446050.000     1142277.000    23446050.000      878065.900
  24587980.000      796710.200    24587980.000      616912.800
  20180100.000     -445158.600    20180100.000     -342967.800
  23562680.000     -133848.100    23562680.000     -101971.700
  21255800.000      681518.600    21255800.000      513844.600
  21697000.000     -966480.800    21697010.000     -744640.600
  24660850.000      928163.300    24660850.000      684609.900
  20459720.000    -1041285.000    20459720.000     -334380.600
 11 11  3 15 33 21.0000000  0  9G01G03G06G11G14G19G20G22G32                                     
  20847190.000     -451502.500    20847190.000     -348562.800
  23446710.000     1145767.000    23446710.000      880785.400
  24588600.000      799976.800    24588610.000      619458.200
  20180070.000     -445351.900    20180060.000     -343118.500
  23562680.000     -133835.500    23562680.000     -101961.900
  21256150.000      683349.400    21256150.000      515271.200
  21696480.000     -969258.900    21696480.000     -746805.300
  24661480.000      931456.500    24661480.000      687176.000
  20459510.000    -1042342.000    20459520.000     -335204.300
 11 11  3 15 33 22.0000000  0  9G01G03G06G11G14G19G20G22G32                                     
  20846990.000     -452506.700    20847000.000     -349345.200
  23447370.000     1149257.000    23447380.000      883505.100
  24589220.000      803243.500    24589230.000      622003.700
  20180030.000     -445544.900    20180030.000     -343268.900
  23562680.000     -133822.300    23562680.000     -101951.600
  21256500.000      685180.500    21256500.000      516698.000
  21695950.000     -972036.700    21695950.000     -748969.800
  24662100.000      934749.800    24662110.000      689742.300
  20459310.000    -1043398.000    20459310.000     -336027.600
 11 11  3 15 33 23.0000000  0  9G01G03G06G11G14G19G20G22G32                                     
  20846800.000     -453510.900    20846810.000     -350127.800
  23448040.000     1152747.000    23448040.000      886224.700
  24589840.000      806510.100    24589850.000      624549.100
  20179990.000     -445737.800    20179990.000     -343419.200
  23562680.000     -133808.800    23562690.000     -101941.100
  21256850.000      687011.800    21256850.000      518125.000
  21695420.000     -974814.300    21695420.000     -751134.200
  24662730.000      938042.900    24662730.000      692308.300
  20459110.000    -1044455.000    20459110.000     -336850.600
 11 11  3 15 33 24.0000000  0  9G01G03G06G11G14G19G20G22G32                                     
  20846610.000     -454515.200    20846620.000     -350910.400
  23448700.000     1156237.000    23448710.000      888944.100
  24590460.000      809776.500    24590470.000      627094.300
  20179950.000     -445930.800    20179950.000     -343569.600
  23562690.000     -133795.200    23562690.000     -101930.400
  21257200.000      688843.100    21257200.000      519552.000
  21694890.000     -977591.900    21694890.000     -753298.500
  24663360.000      941335.700    24663360.000      694874.200
  20458910.000    -1045511.000    20458910.000     -337673.400
 11 11  3 15 33 26.0000000  0  9G01G03G06G11G14G19G20G22G32                                     
  20846230.000     -456523.300    20846230.000     -352475.100
  23450030.000     1163218.000    23450040.000      894383.300
  24591710.000      816309.500    24591710.000      632184.900
  20179880.000     -446315.700    20179880.000     -343869.500
  23562690.000     -133766.100    23562690.000     -101907.800
  21257900.000      692506.800    21257890.000      522406.800
  21693830.000     -983146.000    21693830.000     -757626.400
  24664610.000      947921.600    24664610.000      700006.000
  20458510.000    -1047621.000    20458510.000     -339317.700
 11 11  3 15 33 27.0000000  0  9G01G03G06G11G14G19G20G22G32                                     
  20846040.000     -457526.700    20846040.000     -353257.000
  23450690.000     1166708.000    23450700.000      897103.300
  24592330.000      819576.500    24592330.000      634730.600
  20179850.000     -446507.400    20179840.000     -344018.900
  23562690.000     -133750.400    23562700.000     -101895.600
  21258240.000      694339.400    21258240.000      523834.800
  21693300.000     -985922.300    21693310.000     -759789.700
  24665240.000      951214.800    24665240.000      702572.200
  20458310.000    -1048675.000    20458310.000     -340139.000
 11 11  3 15 33 28.0000000  0  9G01G03G06G11G14G19G20G22G32                                     
  20845850.000     -458529.600    20845850.000     -354038.500
  23451360.000     1170199.000    23451360.000      899823.600
  24592950.000      822843.800    24592960.000      637276.500
  20179810.000     -446698.500    20179810.000     -344167.800
  23562700.000     -133733.900    23562700.000     -101882.700
  21258590.000      696172.800    21258590.000      525263.400
  21692780.000     -988697.900    21692780.000     -761952.600
  24665860.000      954508.500    24665870.000      705138.600
  20458110.000    -1049728.000    20458110.000     -340959.500
 11 11  3 15 33 29.0000000  0  9G01G03G06G11G14G19G20G22G32                                     
  20845660.000     -459532.300    20845660.000     -354819.800
  23452020.000     1173691.000    23452030.000      902544.000
  24593570.000      826111.400    24593580.000      639822.600
  20179770.000     -446889.300    20179770.000     -344316.500
  23562700.000     -133716.900    23562700.000     -101869.400
  21258940.000      698006.500    21258940.000      526692.300
  21692250.000     -991473.100    21692250.000     -764115.100
  24666490.000      957802.200    24666490.000      707705.100
  20457910.000    -1050780.000    20457910.000     -341779.600
 11 11  3 15 33 30.0000000  0  9G01G03G06G11G14G19G20G22G32                                     
  20845470.000     -460535.200    20845470.000     -355601.200
  23452690.000     1177182.000    23452690.000      905264.300
  24594190.000      829378.600    24594200.000      642368.500
  20179740.000     -447080.100    20179730.000     -344465.200
  23562700.000     -133699.600    23562710.000     -101856.000
  21259290.000      699840.200    21259290.000      528121.100
  21691720.000     -994248.400    21691720.000     -766277.600
  24667120.000      961095.500    24667120.000      710271.400
  20457710.000    -1051832.000    20457710.000     -342599.600
 11 11  3 15 33 31.0000000  0  9G01G03G06G11G14G19G20G22G32                                     
  20845280.000     -461538.000    20845280.000     -356382.700
  23453350.000     1180672.000    23453360.000      907984.400
  24594820.000      832645.600    24594820.000      644914.200
  20179700.000     -447270.900    20179700.000     -344613.800
  23562710.000     -133682.000    23562710.000     -101842.300
  21259640.000      701674.000    21259640.000      529550.100
  21691190.000     -997023.500    21691190.000     -768440.100
  24667740.000      964388.700    24667750.000      712837.500
  20457510.000    -1052884.000    20457510.000     -343419.300
 11 11  3 15 33 32.0000000  0  9G01G03G06G11G14G19G20G22G32                                     
  20845090.000     -462540.400    20845090.000     -357163.800
  23454020.000     1184164.000    23454020.000      910704.900
  24595440.000      835913.100    24595440.000      647460.300
  20179660.000     -447461.100    20179660.000     -344762.000
  23562710.000     -133663.700    23562710.000     -101828.000
  21259990.000      703508.400    21259990.000      530979.500
  21690660.000     -999798.100    21690670.000     -770602.100
  24668370.000      967682.200    24668370.000      715403.900
  20457310.000    -1053936.000    20457310.000     -344238.300
 11 11  3 15 33 33.0000000  0  9G01G03G06G11G14G19G20G22G32                                     
  20844890.000     -463542.500    20844900.000     -357944.600
  23454680.000     1187655.000    23454690.000      913425.500
  24596060.000      839180.800    24596070.000      650006.500
  20179630.000     -447650.800    20179630.000     -344909.900
  23562710.000     -133644.600    23562720.000     -101813.100
  21260340.000      705343.300    21260340.000      532409.300
  21690140.000    -1002572.000    21690140.000     -772763.700
  24669000.000      970975.800    24669000.000      717970.300
  20457110.000    -1054986.000    20457110.000     -345056.900
 11 11  3 15 33 34.0000000  0  9G01G03G06G11G14G19G20G22G32                                     
  20844700.000     -464544.400    20844710.000     -358725.300
  23455340.000     1191147.000    23455350.000      916146.200
  24596680.000      842448.500    24596690.000      652552.800
  20179590.000     -447840.300    20179590.000     -345057.500
  23562720.000     -133625.000    23562720.000     -101797.800
  21260690.000      707178.600    21260690.000      533839.400
  21689610.000    -1005346.000    21689610.000     -774925.000
  24669620.000      974269.500    24669630.000      720536.800
  20456910.000    -1056036.000    20456910.000     -345875.000
 11 11  3 15 33 35.0000000  0  9G01G03G06G11G14G19G20G22G32                                     
  20844510.000     -465545.700    20844520.000     -359505.500
  23456010.000     1194639.000    23456010.000      918867.400
  24597300.000      845716.700    24597310.000      655099.400
  20179560.000     -448029.100    20179550.000     -345204.600
  23562720.000     -133604.500    23562720.000     -101781.900
  21261040.000      709014.600    21261040.000      535270.000
  21689080.000    -1008119.000    21689080.000     -777085.900
  24670250.000      977563.600    24670250.000      723103.700
  20456710.000    -1057085.000    20456710.000     -346692.300
 11 11  3 15 33 36.0000000  0  9G01G03G06G11G14G19G20G22G32                                     
  20844320.000     -466546.700    20844330.000     -360285.600
  23456670.000     1198131.000    23456680.000      921588.600
  24597920.000      848985.100    24597930.000      657646.200
  20179520.000     -448217.500    20179520.000     -345351.400
  23562730.000     -133583.400    23562730.000     -101765.400
  21261390.000      710851.000    21261390.000      536701.000
  21688550.000    -1010892.000    21688550.000     -779246.300
  24670880.000      980857.800    24670880.000      725670.600
  20456510.000    -1058133.000    20456510.000     -347509.200
 11 11  3 15 33 37.0000000  0  9G01G03G06G11G14G19G20G22G32                                     
  20844130.000     -467547.800    20844140.000     -361065.600
  23457340.000     1201623.000    23457340.000      924309.800
  24598550.000      852253.300    24598550.000      660192.800
  20179480.000     -448405.900    20179480.000     -345498.300
  23562730.000     -133562.000    23562730.000     -101748.700
  21261740.000      712687.500    21261730.000      538132.000
  21688030.000    -1013664.000    21688030.000     -781406.800
  24671500.000      984151.800    24671510.000      728237.300
  20456310.000    -1059181.000    20456310.000     -348325.800
 11 11  3 15 33 38.0000000  0  9G01G03G06G11G14G19G20G22G32                                     
  20843940.000     -468548.500    20843950.000     -361845.400
  23458000.000     1205116.000    23458010.000      927031.200
  24599170.000      855521.800    24599180.000      662739.700
  20179450.000     -448593.800    20179450.000     -345644.700
  23562730.000     -133539.900    23562740.000     -101731.500
  21262090.000      714524.600    21262080.000      539563.500
  21687500.000    -1016436.000    21687500.000     -783566.800
  24672130.000      987446.000    24672130.000      730804.300
  20456110.000    -1060228.000    20456110.000     -349141.900
 11 11  3 15 33 40.0000000  0  9G01G03G06G11G14G19G20G22G32                                     
  20843560.000     -470548.400    20843560.000     -363403.800
  23459330.000     1212102.000    23459340.000      932475.000
  24600410.000      862060.000    24600420.000      667834.300
  20179380.000     -448967.800    20179380.000     -345936.100
  23562740.000     -133493.100    23562750.000     -101695.000
  21262780.000      718200.600    21262780.000      542428.000
  21686440.000    -1021978.000    21686440.000     -787885.300
  24673380.000      994035.500    24673390.000      735938.900
  20455710.000    -1062320.000    20455710.000     -350771.900
 11 11  3 15 33 41.0000000  0  9G01G03G06G11G14G19G20G22G32                                     
  20843370.000     -471548.200    20843370.000     -364182.800
  23460000.000     1215595.000    23460000.000      935196.900
  24601030.000      865329.100    24601040.000      670381.600
  20179340.000     -449154.400    20179340.000     -346081.500
  23562750.000     -133469.000    23562750.000     -101676.200
  21263130.000      720039.100    21263130.000      543860.500
  21685920.000    -1024749.000    21685920.000     -790044.200
  24674010.000      997330.200    24674020.000      738506.200
  20455510.000    -1063366.000    20455520.000     -351586.400
 11 11  3 15 33 42.0000000  0  9G01G03G06G11G14G19G20G22G32                                     
  20843180.000     -472548.100    20843180.000     -364962.000
  23460660.000     1219088.000    23460670.000      937918.700
  24601660.000      868597.900    24601660.000      672928.700
  20179310.000     -449341.200    20179300.000     -346227.000
  23562750.000     -133444.700    23562750.000     -101657.300
  21263480.000      721877.500    21263480.000      545293.000
  21685390.000    -1027520.000    21685390.000     -792203.200
  24674640.000     1000625.000    24674640.000      741073.200
  20455310.000    -1064411.000    20455320.000     -352400.700
 11 11  3 15 33 43.0000000  0  9G01G03G06G11G14G19G20G22G32                                     
  20842990.000     -473547.800    20842990.000     -365740.900
  23461330.000     1222581.000    23461330.000      940640.600
  24602280.000      871866.800    24602290.000      675475.900
  20179270.000     -449527.600    20179270.000     -346372.200
  23562760.000     -133419.900    23562760.000     -101638.000
  21263830.000      723716.300    21263830.000      546725.900
  21684860.000    -1030290.000    21684860.000     -794361.900
  24675270.000     1003919.000    24675270.000      743640.300
  20455120.000    -1065455.000    20455120.000     -353214.600
 11 11  3 15 33 44.0000000  0  9G01G03G06G11G14G19G20G22G32                                     
  20842800.000     -474547.100    20842800.000     -366519.600
  23461990.000     1226075.000    23462000.000      943362.700
  24602900.000      875136.100    24602910.000      678023.400
  20179240.000     -449713.400    20179230.000     -346517.100
  23562760.000     -133394.200    23562760.000     -101618.000
  21264180.000      725555.700    21264180.000      548159.200
  21684330.000    -1033060.000    21684340.000     -796520.100
  24675890.000     1007214.000    24675900.000      746207.600
  20454920.000    -1066499.000    20454920.000     -354027.900
 11 11  3 15 33 45.0000000  0  9G01G03G06G11G14G19G20G22G32                                     
  20842610.000     -475545.800    20842610.000     -367297.800
  23462660.000     1229569.000    23462660.000      946085.200
  24603520.000      878405.800    24603530.000      680571.200
  20179200.000     -449898.600    20179200.000     -346661.400
  23562770.000     -133367.700    23562770.000     -101597.300
  21264530.000      727395.700    21264530.000      549593.000
  21683810.000    -1035829.000    21683810.000     -798677.800
  24676520.000     1010509.000    24676520.000      748775.200
  20454720.000    -1067542.000    20454720.000     -354840.400
 11 11  3 15 33 46.0000000  0  9G01G03G06G11G14G19G20G22G32                                     
  20842420.000     -476544.300    20842420.000     -368075.900
  23463320.000     1233063.000    23463330.000      948807.800
  24604150.000      881675.600    24604150.000      683119.100
  20179160.000     -450083.500    20179160.000     -346805.500
  23562770.000     -133340.600    23562770.000     -101576.200
  21264880.000      729236.200    21264880.000      551027.100
  21683280.000    -1038597.000    21683280.000     -800835.200
  24677150.000     1013804.000    24677150.000      751342.800
  20454520.000    -1068584.000    20454520.000     -355652.500
 11 11  3 15 33 47.0000000  0  9G01G03G06G11G14G19G20G22G32                                     
  20842230.000     -477542.300    20842230.000     -368853.600
  23463990.000     1236557.000    23463990.000      951530.800
  24604770.000      884945.800    24604770.000      685667.300
  20179130.000     -450267.800    20179130.000     -346949.100
  23562780.000     -133312.700    23562780.000     -101554.500
  21265240.000      731077.300    21265230.000      552461.700
  21682750.000    -1041366.000    21682760.000     -802992.200
  24677770.000     1017099.000    24677780.000      753910.700
  20454320.000    -1069625.000    20454320.000     -356463.900
 11 11  3 15 33 48.0000000  0  9G01G03G06G11G14G19G20G22G32                                     
  20842040.000     -478540.500    20842040.000     -369631.300
  23464650.000     1240051.000    23464660.000      954253.500
  24605390.000      888215.800    24605400.000      688215.200
  20179090.000     -450452.100    20179090.000     -347092.700
  23562780.000     -133284.600    23562790.000     -101532.600
  21265590.000      732918.400    21265580.000      553896.400
  21682230.000    -1044134.000    21682230.000     -805149.100
  24678400.000     1020394.000    24678400.000      756478.300
  20454120.000    -1070666.000    20454130.000     -357275.200
 11 11  3 15 33 49.0000000  0  9G01G03G06G11G14G19G20G22G32                                     
  20841850.000     -479538.500    20841850.000     -370409.000
  23465320.000     1243546.000    23465320.000      956976.300
  24606010.000      891485.800    24606020.000      690763.300
  20179060.000     -450636.200    20179060.000     -347236.100
  23562790.000     -133256.000    23562790.000     -101510.300
  21265940.000      734759.800    21265940.000      555331.200
  21681700.000    -1046901.000    21681700.000     -807305.800
  24679030.000     1023690.000    24679030.000      759046.000
  20453930.000    -1071707.000    20453930.000     -358086.000
 11 11  3 15 33 50.0000000  0  9G01G03G06G11G14G19G20G22G32                                     
  20841660.000     -480536.000    20841660.000     -371186.200
  23465980.000     1247040.000    23465990.000      959699.500
  24606630.000      894756.100    24606640.000      693311.600
  20179020.000     -450819.700    20179020.000     -347379.100
  23562790.000     -133226.500    23562800.000     -101487.300
  21266290.000      736601.900    21266290.000      556766.600
  21681170.000    -1049668.000    21681180.000     -809462.000
  24679650.000     1026985.000    24679660.000      761613.900
  20453730.000    -1072746.000    20453730.000     -358896.200
 11 11  3 15 33 51.0000000  0  9G01G03G06G11G14G19G20G22G32                                     
  20841470.000     -481533.200    20841470.000     -371963.300
  23466650.000     1250535.000    23466650.000      962422.700
  24607260.000      898026.700    24607260.000      695860.100
  20178990.000     -451002.800    20178990.000     -347521.800
  23562800.000     -133196.500    23562800.000     -101463.900
  21266640.000      738444.400    21266640.000      558202.300
  21680650.000    -1052435.000    21680650.000     -811618.000
  24680280.000     1030281.000    24680290.000      764181.900
  20453530.000    -1073786.000    20453530.000     -359705.900
 11 11  3 15 33 52.0000000  0  9G01G03G06G11G14G19G20G22G32                                     
  20841280.000     -482530.500    20841280.000     -372740.500
  23467310.000     1254030.000    23467320.000      965145.900
  24607880.000      901297.000    24607890.000      698408.300
  20178950.000     -451185.900    20178950.000     -347664.500
  23562810.000     -133166.200    23562810.000     -101440.300
  21266990.000      740286.900    21266990.000      559638.100
  21680120.000    -1055202.000    21680120.000     -813773.800
  24680910.000     1033576.000    24680910.000      766749.700
  20453330.000    -1074824.000    20453330.000     -360515.400
 11 11  3 15 33 53.0000000  0  9G01G03G06G11G14G19G20G22G32                                     
  20841090.000     -483527.500    20841090.000     -373517.300
  23467980.000     1257525.000    23467980.000      967869.300
  24608500.000      904567.600    24608510.000      700956.800
  20178920.000     -451368.600    20178920.000     -347806.800
  23562810.000     -133135.200    23562810.000     -101416.100
  21267340.000      742130.000    21267340.000      561074.200
  21679590.000    -1057968.000    21679600.000     -815929.300
  24681540.000     1036872.000    24681540.000      769317.600
  20453140.000    -1075863.000    20453140.000     -361324.300
 11 11  3 15 33 54.0000000  0  9G01G03G06G11G14G19G20G22G32                                     
  20840900.000     -484524.000    20840910.000     -374293.800
  23468640.000     1261020.000    23468650.000      970593.000
  24609120.000      907838.600    24609130.000      703505.600
  20178890.000     -451550.600    20178880.000     -347948.700
  23562820.000     -133103.300    23562820.000     -101391.300
  21267690.000      743973.700    21267690.000      562510.900
  21679070.000    -1060734.000    21679070.000     -818084.200
  24682160.000     1040167.000    24682170.000      771885.900
  20452940.000    -1076900.000    20452940.000     -362132.600
 11 11  3 15 33 56.0000000  0  9G01G03G06G11G14G19G20G22G32                                     
  20840520.000     -486515.900    20840530.000     -375846.000
  23469970.000     1268012.000    23469980.000      976040.900
  24610370.000      914381.100    24610380.000      708603.700
  20178820.000     -451913.500    20178820.000     -348231.400
  23562830.000     -133037.600    23562830.000     -101340.100
  21268390.000      747662.500    21268390.000      565385.300
  21678020.000    -1066263.000    21678020.000     -822393.100
  24683420.000     1046760.000    24683420.000      777022.700
  20452540.000    -1078972.000    20452550.000     -363747.500
 11 11  3 15 33 57.0000000  0  9G01G03G06G11G14G19G20G22G32                                     
  20840330.000     -487511.600    20840340.000     -376621.800
  23470640.000     1271508.000    23470640.000      978765.100
  24610990.000      917652.500    24611000.000      711152.800
  20178780.000     -452094.500    20178780.000     -348372.400
  23562840.000     -133004.000    23562840.000     -101313.900
  21268740.000      749507.500    21268740.000      566822.900
  21677490.000    -1069028.000    21677490.000     -824547.100
  24684040.000     1050056.000    24684050.000      779591.100
  20452350.000    -1080008.000    20452350.000     -364554.300
 11 11  3 15 33 58.0000000  0  9G01G03G06G11G14G19G20G22G32                                     
  20840140.000     -488507.600    20840150.000     -377397.900
  23471300.000     1275003.000    23471310.000      981488.900
  24611610.000      920923.600    24611620.000      713701.600
  20178750.000     -452275.600    20178750.000     -348513.500
  23562840.000     -132970.200    23562850.000     -101287.600
  21269090.000      751352.300    21269090.000      568260.400
  21676960.000    -1071792.000    21676970.000     -826701.200
  24684670.000     1053352.000    24684680.000      782159.200
  20452150.000    -1081043.000    20452150.000     -365361.000
 11 11  3 15 33 59.0000000  0  9G01G03G06G11G14G19G20G22G32                                     
  20839950.000     -489503.200    20839960.000     -378173.700
  23471970.000     1278499.000    23471970.000      984212.900
  24612240.000      924194.800    24612240.000      716250.600
  20178710.000     -452456.300    20178710.000     -348654.400
  23562850.000     -132935.900    23562850.000     -101260.800
  21269440.000      753197.600    21269440.000      569698.300
  21676440.000    -1074556.000    21676440.000     -828855.000
  24685300.000     1056647.000    24685300.000      784727.400
  20451950.000    -1082078.000    20451950.000     -366167.200
 11 11  3 15 34  0.0000000  0  9G01G03G06G11G14G19G20G22G32                                     
  20839760.000     -490498.600    20839770.000     -378949.300
  23472630.000     1281995.000    23472640.000      986937.100
  24612860.000      927466.200    24612870.000      718799.700
  20178680.000     -452636.700    20178680.000     -348794.900
  23562860.000     -132900.900    23562860.000     -101233.600
  21269800.000      755043.200    21269800.000      571136.500
  21675910.000    -1077320.000    21675910.000     -831008.500
  24685930.000     1059943.000    24685930.000      787295.700
  20451760.000    -1083112.000    20451760.000     -366973.000
 11 11  3 15 34  1.0000000  0  9G01G03G06G11G14G19G20G22G32                                     
  20839580.000     -491493.600    20839580.000     -379724.700
  23473300.000     1285492.000    23473300.000      989661.500
  24613480.000      930737.900    24613490.000      721349.100
  20178640.000     -452816.600    20178640.000     -348935.100
  23562860.000     -132865.200    23562870.000     -101205.700
  21270150.000      756889.500    21270150.000      572575.100
  21675390.000    -1080083.000    21675390.000     -833161.600
  24686550.000     1063240.000    24686560.000      789864.200
  20451560.000    -1084145.000    20451560.000     -367778.100
 11 11  3 15 34  2.0000000  0  9G01G03G06G11G14G19G20G22G32                                     
  20839390.000     -492488.300    20839390.000     -380499.700
  23473960.000     1288988.000    23473970.000      992386.100
  24614100.000      934009.700    24614110.000      723898.500
  20178610.000     -452996.000    20178610.000     -349074.900
  23562870.000     -132828.900    23562870.000     -101177.400
  21270500.000      758736.200    21270500.000      574014.100
  21674860.000    -1082846.000    21674860.000     -835314.300
  24687180.000     1066536.000    24687180.000      792432.800
  20451360.000    -1085178.000    20451360.000     -368582.700
 11 11  3 15 34  4.0000000  0  9G01G03G06G11G14G19G20G22G32                                     
  20839010.000     -494475.600    20839010.000     -382048.300
  23475290.000     1295983.000    23475300.000      997836.600
  24615350.000      940555.200    24615360.000      728998.800
  20178540.000     -453352.700    20178540.000     -349352.800
  23562880.000     -132753.100    23562890.000     -101118.400
  21271200.000      762432.000    21271200.000      576894.000
  21673810.000    -1088368.000    21673810.000     -839617.800
  24688440.000     1073130.000    24688440.000      797571.100
  20450970.000    -1087240.000    20450970.000     -370189.600
 11 11  3 15 34  5.0000000  0  9G01G03G06G11G14G19G20G22G32                                     
  20838820.000     -495468.900    20838820.000     -382822.300
  23475960.000     1299481.000    23475970.000     1000562.000
  24615970.000      943828.200    24615980.000      731549.200
  20178510.000     -453530.400    20178510.000     -349491.300
  23562890.000     -132714.300    23562890.000     -101088.100
  21271550.000      764280.600    21271550.000      578334.400
  21673280.000    -1091129.000    21673290.000     -841769.000
  24689060.000     1076427.000    24689070.000      800140.400
  20450770.000    -1088270.000    20450780.000     -370992.200
 11 11  3 15 34  6.0000000  0  9G01G03G06G11G14G19G20G22G32                                     
  20838630.000     -496462.500    20838630.000     -383596.500
  23476630.000     1302978.000    23476630.000     1003287.000
  24616600.000      947100.700    24616600.000      734099.200
  20178470.000     -453708.300    20178470.000     -349630.000
  23562900.000     -132675.400    23562900.000     -101057.900
  21271910.000      766129.000    21271900.000      579774.800
  21672760.000    -1093890.000    21672760.000     -843920.500
  24689690.000     1079724.000    24689690.000      802709.400
  20450580.000    -1089300.000    20450580.000     -371794.900
 11 11  3 15 34  7.0000000  0  9G01G03G06G11G14G19G20G22G32                                     
  20838440.000     -497455.800    20838440.000     -384370.500
  23477290.000     1306476.000    23477300.000     1006013.000
  24617220.000      950373.400    24617230.000      736649.300
  20178440.000     -453886.000    20178440.000     -349768.400
  23562910.000     -132636.000    23562910.000     -101027.200
  21272260.000      767977.800    21272260.000      581215.400
  21672230.000    -1096651.000    21672240.000     -846071.600
  24690320.000     1083021.000    24690320.000      805278.400
  20450380.000    -1090329.000    20450380.000     -372597.000
 11 11  3 15 34  8.0000000  0  9G01G03G06G11G14G19G20G22G32                                     
  20838250.000     -498448.800    20838260.000     -385144.300
  23477960.000     1309973.000    23477960.000     1008738.000
  24617840.000      953646.200    24617850.000      739199.500
  20178410.000     -454063.200    20178410.000     -349906.500
  23562910.000     -132596.000    23562920.000     -100995.900
  21272610.000      769827.100    21272610.000      582656.400
  21671710.000    -1099411.000    21671710.000     -848222.300
  24690950.000     1086318.000    24690950.000      807847.500
  20450190.000    -1091358.000    20450190.000     -373398.700
 11 11  3 15 34  9.0000000  0  9G01G03G06G11G14G19G20G22G32                                     
  20838060.000     -499441.700    20838070.000     -385918.000
  23478620.000     1313471.000    23478630.000     1011464.000
  24618460.000      956919.200    24618470.000      741749.800
  20178370.000     -454240.100    20178370.000     -350044.300
  23562920.000     -132555.400    23562920.000     -100964.300
  21272960.000      771676.700    21272960.000      584097.600
  21671180.000    -1102171.000    21671180.000     -850372.800
  24691570.000     1089615.000    24691580.000      810416.600
  20449990.000    -1092386.000    20449990.000     -374199.900
 11 11  3 15 34 10.0000000  0  9G01G03G06G11G14G19G20G22G32                                     
  20837870.000     -500434.100    20837880.000     -386691.300
  23479290.000     1316969.000    23479290.000     1014189.000
  24619090.000      960192.400    24619090.000      744300.400
  20178340.000     -454416.500    20178340.000     -350181.800
  23562930.000     -132514.000    23562930.000     -100932.100
  21273310.000      773526.800    21273310.000      585539.300
  21670660.000    -1104930.000    21670660.000     -852522.900
  24692200.000     1092913.000    24692200.000      812986.000
  20449800.000    -1093414.000    20449800.000     -375000.500
 11 11  3 15 34 11.0000000  0  9G01G03G06G11G14G19G20G22G32                                     
  20837690.000     -501426.100    20837690.000     -387464.200
  23479950.000     1320468.000    23479960.000     1016916.000
  24619710.000      963466.000    24619720.000      746851.300
  20178310.000     -454592.300    20178310.000     -350318.800
  23562940.000     -132471.800    23562940.000     -100899.200
  21273670.000      775377.600    21273660.000      586981.500
  21670130.000    -1107689.000    21670130.000     -854672.500
  24692830.000     1096210.000    24692830.000      815555.600
  20449600.000    -1094440.000    20449600.000     -375800.500
 11 11  3 15 34 12.0000000  0  9G01G03G06G11G14G19G20G22G32                                     
  20837500.000     -502417.900    20837500.000     -388237.100
  23480620.000     1323966.000    23480630.000     1019642.000
  24620330.000      966739.600    24620340.000      749402.100
  20178270.000     -454767.900    20178270.000     -350455.600
  23562950.000     -132429.200    23562950.000     -100866.000
  21274020.000      777228.600    21274020.000      588423.800
  21669610.000    -1110447.000    21669610.000     -856821.900
  24693460.000     1099508.000    24693460.000      818125.100
  20449410.000    -1095467.000    20449410.000     -376600.100
 11 11  3 15 34 13.0000000  0  9G01G03G06G11G14G19G20G22G32                                     
  20837310.000     -503409.900    20837310.000     -389010.100
  23481290.000     1327465.000    23481290.000     1022368.000
  24620960.000      970013.000    24620960.000      751952.700
  20178240.000     -454943.500    20178240.000     -350592.500
  23562950.000     -132386.400    23562960.000     -100832.600
  21274370.000      779079.700    21274370.000      589866.200
  21669080.000    -1113205.000    21669080.000     -858971.300
  24694080.000     1102805.000    24694090.000      820694.400
  20449210.000    -1096492.000    20449210.000     -377399.500
 11 11  3 15 34 15.0000000  0  9G01G03G06G11G14G19G20G22G32                                     
  20836930.000     -505392.400    20836930.000     -390554.900
  23482620.000     1334463.000    23482620.000     1027821.000
  24622200.000      976560.800    24622210.000      757054.900
  20178170.000     -455293.000    20178170.000     -350864.800
  23562970.000     -132298.300    23562970.000     -100764.000
  21275070.000      782783.700    21275070.000      592752.500
  21668030.000    -1118720.000    21668040.000     -863268.600
  24695340.000     1109401.000    24695340.000      825833.700
  20448820.000    -1098542.000    20448820.000     -378996.400
 11 11  3 15 34 17.0000000  0  9G01G03G06G11G14G19G20G22G32                                     
  20836550.000     -507374.100    20836560.000     -392099.100
  23483950.000     1341461.000    23483950.000     1033274.000
  24623450.000      983109.000    24623450.000      762157.300
  20178110.000     -455641.400    20178110.000     -351136.300
  23562990.000     -132208.000    23562990.000     -100693.600
  21275780.000      786489.100    21275780.000      595639.800
  21666980.000    -1124234.000    21666990.000     -867564.900
  24696590.000     1115996.000    24696600.000      830973.200
  20448430.000    -1100589.000    20448430.000     -380591.500
 11 11  3 15 34 18.0000000  0  9G01G03G06G11G14G19G20G22G32                                     
  20836370.000     -508364.500    20836370.000     -392870.800
  23484620.000     1344961.000    23484620.000     1036001.000
  24624070.000      986383.400    24624080.000      764708.800
  20178070.000     -455814.900    20178070.000     -351271.500
  23563000.000     -132161.900    23563000.000     -100657.700
  21276130.000      788342.500    21276130.000      597084.000
  21666460.000    -1126990.000    21666460.000     -869712.500
  24697220.000     1119294.000    24697220.000      833543.100
  20448240.000    -1101611.000    20448240.000     -381388.300
 11 11  3 15 34 19.0000000  0  9G01G03G06G11G14G19G20G22G32                                     
  20836180.000     -509354.700    20836180.000     -393642.400
  23485280.000     1348460.000    23485290.000     1038728.000
  24624690.000      989657.800    24624700.000      767260.200
  20178040.000     -455988.200    20178040.000     -351406.500
  23563010.000     -132115.300    23563010.000     -100621.300
  21276480.000      790196.300    21276480.000      598528.400
  21665940.000    -1129746.000    21665940.000     -871859.800
  24697850.000     1122592.000    24697850.000      836113.000
  20448040.000    -1102633.000    20448040.000     -382184.600
 11 11  3 15 34 20.0000000  0  9G01G03G06G11G14G19G20G22G32                                     
  20835990.000     -510345.000    20835990.000     -394414.100
  23485950.000     1351960.000    23485950.000     1041455.000
  24625320.000      992932.100    24625320.000      769811.600
  20178010.000     -456161.500    20178010.000     -351541.500
  23563010.000     -132068.300    23563020.000     -100584.800
  21276840.000      792050.100    21276840.000      599973.000
  21665410.000    -1132501.000    21665410.000     -874007.100
  24698480.000     1125890.000    24698480.000      838682.700
  20447850.000    -1103655.000    20447850.000     -382980.800
 11 11  3 15 34 21.0000000  0  9G01G03G06G11G14G19G20G22G32                                     
  20835800.000     -511334.900    20835800.000     -395185.400
  23486610.000     1355459.000    23486620.000     1044182.000
  24625940.000      996206.600    24625950.000      772363.100
  20177980.000     -456334.300    20177970.000     -351676.200
  23563020.000     -132020.700    23563030.000     -100547.700
  21277190.000      793904.400    21277190.000      601417.900
  21664890.000    -1135257.000    21664890.000     -876154.100
  24699100.000     1129188.000    24699110.000      841252.600
  20447650.000    -1104676.000    20447650.000     -383776.400
 11 11  3 15 34 22.0000000  0  9G01G03G06G11G14G19G20G22G32                                     
  20835610.000     -512324.200    20835610.000     -395956.200
  23487280.000     1358960.000    23487280.000     1046909.000
  24626560.000      999481.700    24626570.000      774915.100
  20177940.000     -456506.200    20177940.000     -351810.200
  23563030.000     -131972.100    23563040.000     -100509.800
  21277540.000      795759.500    21277540.000      602863.500
  21664360.000    -1138011.000    21664360.000     -878300.300
  24699730.000     1132487.000    24699730.000      843822.900
  20447460.000    -1105696.000    20447460.000     -384571.100
 11 11  3 15 34 24.0000000  0  9G01G03G06G11G14G19G20G22G32                                     
  20835240.000     -514301.900    20835240.000     -397497.300
  23488610.000     1365961.000    23488620.000     1052365.000
  24627810.000     1006032.000    24627820.000      780019.500
  20177880.000     -456849.100    20177880.000     -352077.400
  23563050.000     -131873.000    23563050.000     -100432.500
  21278250.000      799471.100    21278250.000      605755.600
  21663310.000    -1143519.000    21663320.000     -882591.900
  24700990.000     1139084.000    24700990.000      848963.700
  20447070.000    -1107734.000    20447070.000     -386159.200
 11 11  3 15 34 25.0000000  0  9G01G03G06G11G14G19G20G22G32                                     
  20835050.000     -515289.900    20835050.000     -398267.200
  23489280.000     1369462.000    23489280.000     1055093.000
  24628430.000     1009308.000    24628440.000      782572.100
  20177840.000     -457019.700    20177840.000     -352210.200
  23563060.000     -131822.100    23563060.000     -100392.900
  21278600.000      801327.800    21278600.000      607202.400
  21662790.000    -1146271.000    21662790.000     -884737.000
  24701610.000     1142383.000    24701620.000      851534.500
  20446880.000    -1108752.000    20446880.000     -386952.200
 11 11  3 15 34 26.0000000  0  9G01G03G06G11G14G19G20G22G32                                     
  20834860.000     -516277.900    20834860.000     -399037.100
  23489940.000     1372964.000    23489950.000     1057821.000
  24629060.000     1012584.000    24629060.000      785124.700
  20177810.000     -457190.000    20177810.000     -352343.000
  23563070.000     -131770.800    23563070.000     -100352.900
  21278960.000      803184.900    21278960.000      608649.400
  21662270.000    -1149024.000    21662270.000     -886881.800
  24702240.000     1145682.000    24702250.000      854105.200
  20446680.000    -1109769.000    20446680.000     -387744.800
 11 11  3 15 34 27.0000000  0  9G01G03G06G11G14G19G20G22G32                                     
  20834670.000     -517265.800    20834670.000     -399806.900
  23490610.000     1376465.000    23490620.000     1060550.000
  24629680.000     1015860.000    24629690.000      787677.300
  20177780.000     -457360.200    20177780.000     -352475.600
  23563080.000     -131719.100    23563080.000     -100312.700
  21279310.000      805042.100    21279310.000      610096.600
  21661740.000    -1151776.000    21661750.000     -889026.500
  24702870.000     1148981.000    24702870.000      856675.900
  20446490.000    -1110786.000    20446490.000     -388537.100
 11 11  3 15 34 28.0000000  0  9G01G03G06G11G14G19G20G22G32                                     
  20834480.000     -518253.500    20834490.000     -400576.500
  23491280.000     1379966.000    23491280.000     1063278.000
  24630300.000     1019136.000    24630310.000      790230.000
  20177750.000     -457530.000    20177750.000     -352607.900
  23563090.000     -131666.900    23563090.000     -100272.000
  21279660.000      806899.700    21279660.000      611544.100
  21661220.000    -1154528.000    21661220.000     -891170.900
  24703500.000     1152280.000    24703500.000      859246.600
  20446300.000    -1111802.000    20446300.000     -389329.000
 11 11  3 15 34 29.0000000  0  9G01G03G06G11G14G19G20G22G32                                     
  20834300.000     -519241.200    20834300.000     -401346.100
  23491940.000     1383468.000    23491950.000     1066006.000
  24630930.000     1022412.000    24630930.000      792782.600
  20177720.000     -457699.800    20177710.000     -352740.200
  23563100.000     -131614.400    23563100.000     -100231.000
  21280020.000      808757.400    21280020.000      612991.700
  21660700.000    -1157280.000    21660700.000     -893315.200
  24704130.000     1155579.000    24704130.000      861817.200
  20446100.000    -1112818.000    20446100.000     -390120.600
 11 11  3 15 34 30.0000000  0  9G01G03G06G11G14G19G20G22G32                                     
  20834110.000     -520229.100    20834110.000     -402115.900
  23492610.000     1386969.000    23492610.000     1068734.000
  24631550.000     1025687.000    24631560.000      795334.900
  20177680.000     -457869.600    20177680.000     -352872.600
  23563110.000     -131561.600    23563110.000     -100189.900
  21280370.000      810615.100    21280370.000      614439.200
  21660170.000    -1160032.000    21660170.000     -895459.600
  24704750.000     1158878.000    24704760.000      864387.500
  20445910.000    -1113834.000    20445910.000     -390912.100
 11 11  3 15 34 31.0000000  0  9G01G03G06G11G14G19G20G22G32                                     
  20833920.000     -521216.700    20833920.000     -402885.500
  23493280.000     1390470.000    23493280.000     1071462.000
  24632170.000     1028963.000    24632180.000      797887.400
  20177650.000     -458039.100    20177650.000     -353004.600
  23563120.000     -131508.300    23563120.000     -100148.400
  21280720.000      812473.300    21280720.000      615887.100
  21659650.000    -1162784.000    21659650.000     -897603.600
  24705380.000     1162177.000    24705380.000      866957.900
  20445720.000    -1114849.000    20445720.000     -391703.000
 11 11  3 15 34 32.0000000  0  9G01G03G06G11G14G19G20G22G32                                     
  20833730.000     -522203.700    20833730.000     -403654.600
  23493940.000     1393972.000    23493950.000     1074191.000
  24632800.000     1032239.000    24632800.000      800440.300
  20177620.000     -458207.800    20177620.000     -353136.100
  23563130.000     -131454.000    23563130.000     -100106.000
  21281080.000      814332.200    21281080.000      617335.600
  21659130.000    -1165534.000    21659130.000     -899747.000
  24706010.000     1165476.000    24706010.000      869528.700
  20445520.000    -1115863.000    20445530.000     -392493.200
 11 11  3 15 34 33.0000000  0  9G01G03G06G11G14G19G20G22G32                                     
  20833540.000     -523190.200    20833550.000     -404423.300
  23494610.000     1397474.000    23494610.000     1076920.000
  24633420.000     1035516.000    24633430.000      802993.500
  20177590.000     -458376.000    20177590.000     -353267.100
  23563140.000     -131398.800    23563140.000     -100063.100
  21281430.000      816191.700    21281430.000      618784.600
  21658600.000    -1168284.000    21658600.000     -901889.900
  24706640.000     1168775.000    24706640.000      872099.700
  20445330.000    -1116876.000    20445330.000     -393282.800
 11 11  3 15 34 34.0000000  0  9G01G03G06G11G14G19G20G22G32                                     
  20833360.000     -524176.600    20833360.000     -405191.900
  23495280.000     1400976.000    23495280.000     1079649.000
  24634040.000     1038792.000    24634050.000      805546.600
  20177550.000     -458543.900    20177550.000     -353398.000
  23563150.000     -131343.200    23563160.000     -100019.700
  21281790.000      818051.500    21281790.000      620233.800
  21658080.000    -1171034.000    21658080.000     -904032.600
  24707260.000     1172075.000    24707270.000      874670.700
  20445140.000    -1117889.000    20445140.000     -394071.900
 11 11  3 15 34 35.0000000  0  9G01G03G06G11G14G19G20G22G32                                     
  20833170.000     -525163.000    20833170.000     -405960.500
  23495940.000     1404478.000    23495950.000     1082378.000
  24634670.000     1042069.000    24634670.000      808099.700
  20177520.000     -458711.800    20177520.000     -353528.800
  23563160.000     -131287.300    23563170.000      -99976.150
  21282140.000      819911.500    21282140.000      621683.100
  21657560.000    -1173784.000    21657560.000     -906175.300
  24707890.000     1175374.000    24707900.000      877241.500
  20444950.000    -1118901.000    20444950.000     -394860.800
 11 11  3 15 34 36.0000000  0  9G01G03G06G11G14G19G20G22G32                                     
  20832980.000     -526149.200    20832980.000     -406729.000
  23496610.000     1407980.000    23496610.000     1085107.000
  24635290.000     1045346.000    24635300.000      810652.800
  20177490.000     -458879.400    20177490.000     -353659.400
  23563170.000     -131230.900    23563180.000      -99932.180
  21282490.000      821771.700    21282490.000      623132.700
  21657030.000    -1176533.000    21657030.000     -908317.700
  24708520.000     1178673.000    24708520.000      879812.300
  20444750.000    -1119913.000    20444750.000     -395649.300
 11 11  3 15 34 37.0000000  0  9G01G03G06G11G14G19G20G22G32                                     
  20832790.000     -527135.200    20832800.000     -407497.300
  23497270.000     1411483.000    23497280.000     1087836.000
  24635910.000     1048622.000    24635920.000      813206.000
  20177460.000     -459046.700    20177460.000     -353789.700
  23563180.000     -131173.900    23563190.000      -99887.770
  21282850.000      823632.400    21282850.000      624582.500
  21656510.000    -1179282.000    21656510.000     -910459.800
  24709150.000     1181972.000    24709150.000      882383.200
  20444560.000    -1120924.000    20444560.000     -396437.400
 11 11  3 15 34 38.0000000  0  9G01G03G06G11G14G19G20G22G32                                     
  20832610.000     -528120.800    20832610.000     -408265.300
  23497940.000     1414985.000    23497950.000     1090565.000
  24636540.000     1051899.000    24636550.000      815759.500
  20177430.000     -459213.400    20177430.000     -353919.600
  23563200.000     -131116.100    23563200.000      -99842.750
  21283200.000      825493.600    21283200.000      626032.800
  21655990.000    -1182031.000    21655990.000     -912601.400
  24709780.000     1185272.000    24709780.000      884954.300
  20444370.000    -1121935.000    20444370.000     -397224.800
 11 11  3 15 34 39.0000000  0  9G01G03G06G11G14G19G20G22G32                                     
  20832420.000     -529106.200    20832420.000     -409033.100
  23498610.000     1418488.000    23498610.000     1093295.000
  24637160.000     1055176.000    24637170.000      818313.000
  20177400.000     -459379.800    20177390.000     -354049.300
  23563210.000     -131057.800    23563210.000      -99797.290
  21283560.000      827355.100    21283560.000      627483.400
  21655460.000    -1184779.000    21655460.000     -914742.800
  24710400.000     1188571.000    24710410.000      887525.400
  20444180.000    -1122945.000    20444180.000     -398011.700
 11 11  3 15 34 40.0000000  0  9G01G03G06G11G14G19G20G22G32                                     
  20832230.000     -530091.100    20832230.000     -409800.600
  23499270.000     1421991.000    23499280.000     1096025.000
  24637790.000     1058454.000    24637790.000      820866.800
  20177360.000     -459545.700    20177360.000     -354178.600
  23563220.000     -130998.700    23563220.000      -99751.230
  21283910.000      829217.300    21283910.000      628934.400
  21654940.000    -1187527.000    21654940.000     -916883.800
  24711030.000     1191871.000    24711040.000      890096.700
  20443980.000    -1123954.000    20443990.000     -398798.100
 11 11  3 15 34 41.0000000  0  9G01G03G06G11G14G19G20G22G32                                     
  20832040.000     -531075.800    20832050.000     -410567.900
  23499940.000     1425495.000    23499950.000     1098754.000
  24638410.000     1061731.000    24638420.000      823420.700
  20177330.000     -459711.300    20177330.000     -354307.600
  23563230.000     -130939.000    23563230.000      -99704.730
  21284260.000      831079.800    21284260.000      630385.800
  21654420.000    -1190274.000    21654420.000     -919024.400
  24711660.000     1195171.000    24711660.000      892668.100
  20443790.000    -1124963.000    20443790.000     -399584.000
 11 11  3 15 34 42.0000000  0  9G01G03G06G11G14G19G20G22G32                                     
  20831860.000     -532060.300    20831860.000     -411335.100
  23500610.000     1428998.000    23500610.000     1101484.000
  24639030.000     1065009.000    24639040.000      825974.600
  20177300.000     -459876.600    20177300.000     -354436.400
  23563240.000     -130878.800    23563240.000      -99657.820
  21284620.000      832942.700    21284620.000      631837.400
  21653890.000    -1193021.000    21653900.000     -921164.800
  24712290.000     1198471.000    24712290.000      895239.500
  20443600.000    -1125971.000    20443600.000     -400369.400
 11 11  3 15 34 43.0000000  0  9G01G03G06G11G14G19G20G22G32                                     
  20831670.000     -533044.300    20831670.000     -412101.800
  23501270.000     1432502.000    23501280.000     1104215.000
  24639660.000     1068287.000    24639660.000      828528.900
  20177270.000     -460041.200    20177270.000     -354564.700
  23563250.000     -130817.700    23563260.000      -99610.220
  21284970.000      834806.300    21284970.000      633289.500
  21653370.000    -1195767.000    21653370.000     -923304.700
  24712920.000     1201772.000    24712920.000      897811.100
  20443410.000    -1126978.000    20443410.000     -401154.200
 11 11  3 15 34 44.0000000  0  9G01G03G06G11G14G19G20G22G32                                     
  20831480.000     -534027.600    20831480.000     -412868.000
  23501940.000     1436006.000    23501950.000     1106945.000
  24640280.000     1071565.000    24640290.000      831083.600
  20177240.000     -460205.000    20177240.000     -354692.300
  23563260.000     -130755.600    23563270.000      -99561.830
  21285330.000      836670.700    21285330.000      634742.300
  21652850.000    -1198512.000    21652850.000     -925443.900
  24713540.000     1205072.000    24713550.000      900383.200
  20443220.000    -1127984.000    20443220.000     -401938.200
 11 11  3 15 34 45.0000000  0  9G01G03G06G11G14G19G20G22G32                                     
  20831290.000     -535011.100    20831300.000     -413634.400
  23502610.000     1439511.000    23502610.000     1109676.000
  24640900.000     1074843.000    24640910.000      833638.000
  20177210.000     -460369.000    20177210.000     -354820.100
  23563280.000     -130693.400    23563280.000      -99513.320
  21285680.000      838535.000    21285680.000      636195.000
  21652330.000    -1201258.000    21652330.000     -927583.200
  24714170.000     1208373.000    24714180.000      902955.000
  20443030.000    -1128990.000    20443030.000     -402722.000
 11 11  3 15 34 46.0000000  0  9G01G03G06G11G14G19G20G22G32                                     
  20831110.000     -535994.600    20831110.000     -414400.800
  23503270.000     1443015.000    23503280.000     1112406.000
  24641530.000     1078122.000    24641540.000      836192.400
  20177180.000     -460532.900    20177170.000     -354947.800
  23563290.000     -130630.800    23563290.000      -99464.550
  21286040.000      840399.500    21286040.000      637647.800
  21651800.000    -1204003.000    21651810.000     -929722.400
  24714800.000     1211673.000    24714800.000      905526.700
  20442830.000    -1129995.000    20442840.000     -403505.500
 11 11  3 15 34 47.0000000  0  9G01G03G06G11G14G19G20G22G32                                     
  20830920.000     -536977.200    20830920.000     -415166.400
  23503940.000     1446520.000    23503950.000     1115137.000
  24642150.000     1081401.000    24642160.000      838747.400
  20177150.000     -460695.700    20177140.000     -355074.600
  23563300.000     -130566.900    23563300.000      -99414.770
  21286390.000      842265.100    21286390.000      639101.500
  21651280.000    -1206747.000    21651280.000     -931860.700
  24715430.000     1214974.000    24715430.000      908098.900
  20442640.000    -1131000.000    20442640.000     -404288.100
 11 11  3 15 34 48.0000000  0  9G01G03G06G11G14G19G20G22G32                                     
  20830730.000     -537959.700    20830740.000     -415932.000
  23504610.000     1450024.000    23504610.000     1117868.000
  24642780.000     1084679.000    24642780.000      841302.400
  20177110.000     -460858.300    20177110.000     -355201.400
  23563310.000     -130502.600    23563320.000      -99364.680
  21286750.000      844130.900    21286750.000      640555.400
  21650760.000    -1209491.000    21650760.000     -933998.900
  24716060.000     1218275.000    24716060.000      910671.100
  20442450.000    -1132003.000    20442450.000     -405070.300
 11 11  3 15 34 49.0000000  0  9G01G03G06G11G14G19G20G22G32                                     
  20830550.000     -538942.100    20830550.000     -416697.500
  23505280.000     1453529.000    23505280.000     1120600.000
  24643400.000     1087958.000    24643410.000      843857.400
  20177080.000     -461020.700    20177080.000     -355327.900
  23563320.000     -130437.800    23563330.000      -99314.200
  21287100.000      845996.900    21287100.000      642009.500
  21650240.000    -1212235.000    21650240.000     -936136.800
  24716680.000     1221576.000    24716690.000      913243.300
  20442260.000    -1133007.000    20442260.000     -405852.100
 11 11  3 15 34 50.0000000  0  9G01G03G06G11G14G19G20G22G32                                     
  20830360.000     -539923.900    20830360.000     -417462.500
  23505940.000     1457035.000    23505950.000     1123331.000
  24644020.000     1091238.000    24644030.000      846412.700
  20177050.000     -461182.500    20177050.000     -355454.000
  23563340.000     -130372.100    23563340.000      -99263.040
  21287460.000      847863.700    21287460.000      643464.100
  21649720.000    -1214978.000    21649720.000     -938274.200
  24717310.000     1224877.000    24717320.000      915815.700
  20442070.000    -1134009.000    20442070.000     -406633.200
 11 11  3 15 34 51.0000000  0  9G01G03G06G11G14G19G20G22G32                                     
  20830170.000     -540905.400    20830180.000     -418227.300
  23506610.000     1460540.000    23506620.000     1126063.000
  24644650.000     1094517.000    24644660.000      848968.200
  20177020.000     -461343.800    20177020.000     -355579.700
  23563350.000     -130305.800    23563350.000      -99211.340
  21287810.000      849730.900    21287810.000      644919.100
  21649190.000    -1217720.000    21649200.000     -940411.300
  24717940.000     1228179.000    24717940.000      918388.300
  20441880.000    -1135011.000    20441880.000     -407413.800
 11 11  3 15 34 52.0000000  0  9G01G03G06G11G14G19G20G22G32                                     
  20829990.000     -541887.000    20829990.000     -418992.200
  23507280.000     1464046.000    23507280.000     1128794.000
  24645270.000     1097797.000    24645280.000      851523.500
  20176990.000     -461505.100    20176990.000     -355705.400
  23563360.000     -130239.300    23563370.000      -99159.480
  21288170.000      851598.200    21288170.000      646374.100
  21648670.000    -1220463.000    21648670.000     -942548.300
  24718570.000     1231480.000    24718570.000      920960.700
  20441690.000    -1136012.000    20441690.000     -408194.100
 11 11  3 15 34 53.0000000  0  9G01G03G06G11G14G19G20G22G32                                     
  20829800.000     -542868.400    20829800.000     -419756.900
  23507940.000     1467552.000    23507950.000     1131526.000
  24645900.000     1101076.000    24645900.000      854078.900
  20176960.000     -461666.200    20176960.000     -355830.900
  23563370.000     -130172.100    23563380.000      -99107.190
  21288520.000      853465.900    21288520.000      647829.400
  21648150.000    -1223205.000    21648150.000     -944685.100
  24719200.000     1234781.000    24719200.000      923533.100
  20441500.000    -1137013.000    20441500.000     -408974.100
 11 11  3 15 34 54.0000000  0  9G01G03G06G11G14G19G20G22G32                                     
  20829610.000     -543849.500    20829620.000     -420521.400
  23508610.000     1471057.000    23508620.000     1134258.000
  24646520.000     1104356.000    24646530.000      856634.500
  20176930.000     -461826.800    20176930.000     -355956.100
  23563390.000     -130104.400    23563390.000      -99054.430
  21288880.000      855333.900    21288880.000      649285.000
  21647630.000    -1225947.000    21647630.000     -946821.500
  24719830.000     1238083.000    24719830.000      926105.500
  20441310.000    -1138014.000    20441310.000     -409753.500
 11 11  3 15 34 55.0000000  0  9G01G03G06G11G14G19G20G22G32                                     
  20829430.000     -544830.500    20829430.000     -421285.900
  23509280.000     1474563.000    23509280.000     1136989.000
  24647140.000     1107635.000    24647150.000      859189.900
  20176900.000     -461987.300    20176900.000     -356081.100
  23563400.000     -130036.400    23563400.000      -99001.370
  21289240.000      857202.200    21289240.000      650740.800
  21647110.000    -1228688.000    21647110.000     -948957.800
  24720450.000     1241384.000    24720460.000      928677.900
  20441120.000    -1139013.000    20441120.000     -410532.600
 11 11  3 15 34 56.0000000  0  9G01G03G06G11G14G19G20G22G32                                     
  20829240.000     -545811.600    20829240.000     -422050.400
  23509950.000     1478069.000    23509950.000     1139721.000
  24647770.000     1110915.000    24647780.000      861745.300
  20176870.000     -462147.800    20176870.000     -356206.200
  23563410.000     -129967.900    23563420.000      -98948.060
  21289590.000      859070.500    21289590.000      652196.700
  21646590.000    -1231430.000    21646590.000     -951094.000
  24721080.000     1244685.000    24721090.000      931250.200
  20440930.000    -1140013.000    20440930.000     -411311.500
 11 11  3 15 34 57.0000000  0  9G01G03G06G11G14G19G20G22G32                                     
  20829050.000     -546792.800    20829060.000     -422814.900
  23510610.000     1481574.000    23510620.000     1142453.000
  24648390.000     1114194.000    24648400.000      864300.500
  20176840.000     -462308.100    20176840.000     -356331.100
  23563430.000     -129899.200    23563430.000      -98894.500
  21289950.000      860939.100    21289950.000      653652.700
  21646060.000    -1234171.000    21646070.000     -953230.100
  24721710.000     1247986.000    24721710.000      933822.200
  20440740.000    -1141012.000    20440740.000     -412090.100
 11 11  3 15 34 58.0000000  0  9G01G03G06G11G14G19G20G22G32                                     
  20828870.000     -547773.100    20828870.000     -423578.800
  23511280.000     1485080.000    23511290.000     1145185.000
  24649020.000     1117474.000    24649020.000      866856.300
  20176810.000     -462467.600    20176810.000     -356455.400
  23563440.000     -129829.300    23563440.000      -98840.030
  21290300.000      862808.500    21290300.000      655109.400
  21645540.000    -1236911.000    21645540.000     -955365.400
  24722340.000     1251287.000    24722340.000      936394.800
  20440550.000    -1142010.000    20440550.000     -412867.800
 11 11  3 15 34 59.0000000  0  9G01G03G06G11G14G19G20G22G32                                     
  20828680.000     -548752.800    20828680.000     -424342.200
  23511950.000     1488587.000    23511950.000     1147917.000
  24649640.000     1120754.000    24649650.000      869412.500
  20176780.000     -462626.300    20176780.000     -356579.100
  23563450.000     -129758.500    23563460.000      -98784.850
  21290660.000      864678.700    21290660.000      656566.700
  21645020.000    -1239651.000    21645020.000     -957500.200
  24722970.000     1254589.000    24722970.000      938967.700
  20440360.000    -1143007.000    20440360.000     -413644.700
 11 11  3 15 35  0.0000000  0  9G01G03G06G11G14G19G20G22G32                                     
  20828490.000     -549732.200    20828500.000     -425105.300
  23512610.000     1492094.000    23512620.000     1150650.000
  24650270.000     1124035.000    24650270.000      871968.900
  20176750.000     -462784.600    20176750.000     -356702.400
  23563470.000     -129687.000    23563470.000      -98729.120
  21291010.000      866549.500    21291010.000      658024.400
  21644500.000    -1242390.000    21644500.000     -959634.600
  24723590.000     1257891.000    24723600.000      941540.800
  20440170.000    -1144004.000    20440170.000     -414421.100
 11 11  3 15 35  1.0000000  0  9G01G03G06G11G14G19G20G22G32                                     
  20828310.000     -550711.400    20828310.000     -425868.400
  23513280.000     1495601.000    23513290.000     1153383.000
  24650890.000     1127316.000    24650900.000      874525.200
  20176720.000     -462942.700    20176720.000     -356825.600
  23563480.000     -129615.000    23563480.000      -98672.990
  21291370.000      868420.500    21291370.000      659482.300
  21643980.000    -1245129.000    21643980.000     -961768.700
  24724220.000     1261193.000    24724230.000      944113.800
  20439980.000    -1145000.000    20439980.000     -415197.100
 11 11  3 15 35  2.0000000  0  9G01G03G06G11G14G19G20G22G32                                     
  20828120.000     -551690.500    20828120.000     -426631.300
  23513950.000     1499108.000    23513950.000     1156116.000
  24651510.000     1130597.000    24651520.000      877081.700
  20176690.000     -463100.400    20176690.000     -356948.500
  23563490.000     -129542.400    23563500.000      -98616.480
  21291730.000      870291.800    21291730.000      660940.500
  21643460.000    -1247868.000    21643460.000     -963902.700
  24724850.000     1264495.000    24724860.000      946686.900
  20439790.000    -1145995.000    20439790.000     -415972.700
 11 11  3 15 35  3.0000000  0  9G01G03G06G11G14G19G20G22G32                                     
  20827930.000     -552669.600    20827940.000     -427394.200
  23514620.000     1502615.000    23514620.000     1158848.000
  24652140.000     1133877.000    24652150.000      879637.900
  20176660.000     -463258.200    20176660.000     -357071.400
  23563510.000     -129469.600    23563510.000      -98559.740
  21292080.000      872163.200    21292080.000      662398.800
  21642940.000    -1250606.000    21642940.000     -966036.500
  24725480.000     1267797.000    24725480.000      949259.800
  20439600.000    -1146990.000    20439600.000     -416748.100
 11 11  3 15 35  4.0000000  0  9G01G03G06G11G14G19G20G22G32                                     
  20827750.000     -553648.700    20827750.000     -428157.100
  23515280.000     1506122.000    23515290.000     1161581.000
  24652760.000     1137158.000    24652770.000      882194.200
  20176630.000     -463415.800    20176630.000     -357194.200
  23563520.000     -129396.400    23563530.000      -98502.720
  21292440.000      874034.800    21292440.000      663857.100
  21642420.000    -1253344.000    21642420.000     -968170.200
  24726110.000     1271099.000    24726110.000      951832.500
  20439410.000    -1147985.000    20439410.000     -417523.100
 11 11  3 15 35  5.0000000  0  9G01G03G06G11G14G19G20G22G32                                     
  20827560.000     -554627.300    20827560.000     -428919.700
  23515950.000     1509630.000    23515960.000     1164314.000
  24653390.000     1140439.000    24653390.000      884750.700
  20176600.000     -463572.800    20176600.000     -357316.600
  23563540.000     -129322.400    23563540.000      -98445.050
  21292800.000      875907.000    21292800.000      665316.000
  21641890.000    -1256082.000    21641900.000     -970303.500
  24726740.000     1274401.000    24726740.000      954405.500
  20439220.000    -1148978.000    20439220.000     -418297.500
 11 11  3 15 35  7.0000000  0  9G01G03G06G11G14G19G20G22G32                                     
  20827190.000     -556583.700    20827190.000     -430444.100
  23517290.000     1516645.000    23517290.000     1169780.000
  24654640.000     1147001.000    24654640.000      889864.000
  20176540.000     -463885.800    20176540.000     -357560.500
  23563570.000     -129172.600    23563570.000      -98328.250
  21293510.000      879652.700    21293510.000      668234.800
  21640850.000    -1261556.000    21640850.000     -974569.000
  24727990.000     1281005.000    24728000.000      959551.800
  20438840.000    -1150964.000    20438850.000     -419844.800
 11 11  3 15 35  8.0000000  0  9G01G03G06G11G14G19G20G22G32                                     
  20827000.000     -557561.300    20827010.000     -431206.000
  23517950.000     1520153.000    23517960.000     1172514.000
  24655260.000     1150282.000    24655270.000      892421.000
  20176510.000     -464041.600    20176510.000     -357681.900
  23563580.000     -129096.600    23563580.000      -98269.070
  21293860.000      881526.300    21293860.000      669694.700
  21640330.000    -1264292.000    21640330.000     -976701.200
  24728620.000     1284308.000    24728630.000      962125.100
  20438660.000    -1151956.000    20438660.000     -420617.600
 11 11  3 15 35  9.0000000  0  9G01G03G06G11G14G19G20G22G32                                     
  20826820.000     -558538.800    20826820.000     -431967.600
  23518620.000     1523661.000    23518630.000     1175247.000
  24655880.000     1153564.000    24655890.000      894978.100
  20176480.000     -464197.100    20176480.000     -357803.000
  23563590.000     -129020.100    23563600.000      -98209.410
  21294220.000      883400.300    21294220.000      671155.000
  21639810.000    -1267028.000    21639810.000     -978833.000
  24729250.000     1287610.000    24729250.000      964698.500
  20438470.000    -1152947.000    20438470.000     -421390.000
 11 11  3 15 35 10.0000000  0  9G01G03G06G11G14G19G20G22G32                                     
  20826630.000     -559516.200    20826630.000     -432729.300
  23519290.000     1527169.000    23519290.000     1177981.000
  24656510.000     1156845.000    24656520.000      897535.000
  20176450.000     -464352.400    20176450.000     -357924.100
  23563610.000     -128943.200    23563610.000      -98149.500
  21294580.000      885274.500    21294580.000      672615.300
  21639290.000    -1269764.000    21639290.000     -980964.800
  24729880.000     1290913.000    24729880.000      967271.800
  20438280.000    -1153938.000    20438280.000     -422162.000
 11 11  3 15 35 11.0000000  0  9G01G03G06G11G14G19G20G22G32                                     
  20826450.000     -560493.500    20826450.000     -433490.800
  23519960.000     1530677.000    23519960.000     1180715.000
  24657130.000     1160127.000    24657140.000      900092.000
  20176420.000     -464507.600    20176420.000     -358045.000
  23563620.000     -128865.800    23563630.000      -98089.230
  21294930.000      887148.900    21294930.000      674075.900
  21638770.000    -1272500.000    21638770.000     -983096.400
  24730510.000     1294215.000    24730510.000      969845.000
  20438090.000    -1154928.000    20438090.000     -422933.700
 11 11  3 15 35 12.0000000  0  9G01G03G06G11G14G19G20G22G32                                     
  20826260.000     -561470.500    20826260.000     -434252.000
  23520620.000     1534186.000    23520630.000     1183448.000
  24657760.000     1163409.000    24657770.000      902649.200
  20176390.000     -464662.200    20176390.000     -358165.500
  23563640.000     -128787.700    23563640.000      -98028.380
  21295290.000      889023.800    21295290.000      675536.900
  21638250.000    -1275235.000    21638250.000     -985227.500
  24731140.000     1297518.000    24731140.000      972418.400
  20437900.000    -1155918.000    20437900.000     -423704.800
 11 11  3 15 35 13.0000000  0  9G01G03G06G11G14G19G20G22G32                                     
  20826070.000     -562446.600    20826080.000     -435012.700
  23521290.000     1537695.000    23521300.000     1186183.000
  24658380.000     1166691.000    24658390.000      905206.900
  20176360.000     -464816.000    20176360.000     -358285.300
  23563650.000     -128708.500    23563660.000      -97966.670
  21295650.000      890899.700    21295650.000      676998.600
  21637730.000    -1277969.000    21637730.000     -987357.900
  24731760.000     1300821.000    24731770.000      974992.300
  20437710.000    -1156906.000    20437710.000     -424475.100
 11 11  3 15 35 14.0000000  0  9G01G03G06G11G14G19G20G22G32                                     
  20825890.000     -563422.700    20825890.000     -435773.200
  23521960.000     1541204.000    23521970.000     1188917.000
  24659010.000     1169973.000    24659020.000      907764.600
  20176330.000     -464969.500    20176330.000     -358404.900
  23563670.000     -128628.900    23563670.000      -97904.600
  21296010.000      892775.800    21296010.000      678460.500
  21637210.000    -1280702.000    21637210.000     -989488.200
  24732390.000     1304124.000    24732400.000      977566.100
  20437530.000    -1157894.000    20437530.000     -425245.000
 11 11  3 15 35 15.0000000  0  9G01G03G06G11G14G19G20G22G32                                     
  20825700.000     -564398.500    20825710.000     -436533.600
  23522630.000     1544713.000    23522630.000     1191652.000
  24659630.000     1173256.000    24659640.000      910322.400
  20176300.000     -465122.800    20176300.000     -358524.300
  23563680.000     -128548.600    23563690.000      -97842.070
  21296360.000      894652.400    21296360.000      679922.800
  21636690.000    -1283436.000    21636690.000     -991618.100
  24733020.000     1307427.000    24733020.000      980140.000
  20437340.000    -1158882.000    20437340.000     -426014.400
 11 11  3 15 35 16.0000000  0  9G01G03G06G11G14G19G20G22G32                                     
  20825520.000     -565374.200    20825520.000     -437293.900
  23523300.000     1548223.000    23523300.000     1194386.000
  24660260.000     1176538.000    24660260.000      912880.100
  20176270.000     -465275.800    20176270.000     -358643.600
  23563700.000     -128468.000    23563700.000      -97779.250
  21296720.000      896529.100    21296720.000      681385.200
  21636170.000    -1286169.000    21636170.000     -993747.900
  24733650.000     1310730.000    24733650.000      982713.800
  20437150.000    -1159869.000    20437150.000     -426783.400
 11 11  3 15 35 17.0000000  0  9G01G03G06G11G14G19G20G22G32                                     
  20825330.000     -566350.100    20825330.000     -438054.300
  23523960.000     1551732.000    23523970.000     1197121.000
  24660880.000     1179821.000    24660890.000      915437.700
  20176240.000     -465428.900    20176240.000     -358762.900
  23563710.000     -128387.100    23563720.000      -97716.220
  21297080.000      898405.900    21297080.000      682847.600
  21635650.000    -1288902.000    21635650.000     -995877.600
  24734280.000     1314033.000    24734280.000      985287.400
  20436960.000    -1160855.000    20436960.000     -427552.300
 11 11  3 15 35 18.0000000  0  9G01G03G06G11G14G19G20G22G32                                     
  20825150.000     -567325.400    20825150.000     -438814.300
  23524630.000     1555241.000    23524640.000     1199855.000
  24661510.000     1183103.000    24661510.000      917995.600
  20176220.000     -465581.300    20176210.000     -358881.600
  23563730.000     -128305.400    23563730.000      -97652.530
  21297430.000      900283.300    21297430.000      684310.500
  21635130.000    -1291635.000    21635130.000     -998006.800
  24734910.000     1317336.000    24734910.000      987861.200
  20436770.000    -1161841.000    20436780.000     -428320.500
 11 11  3 15 35 19.0000000  0  9G01G03G06G11G14G19G20G22G32                                     
  20824960.000     -568300.200    20824960.000     -439573.900
  23525300.000     1558751.000    23525300.000     1202590.000
  24662130.000     1186387.000    24662140.000      920553.900
  20176190.000     -465733.100    20176190.000     -358999.900
  23563750.000     -128222.700    23563750.000      -97588.100
  21297790.000      902161.500    21297790.000      685774.000
  21634610.000    -1294366.000    21634610.000    -1000135.000
  24735540.000     1320639.000    24735540.000      990435.400
  20436590.000    -1162826.000    20436590.000     -429088.000
 11 11  3 15 35 20.0000000  0  9G01G03G06G11G14G19G20G22G32                                     
  20824770.000     -569274.800    20824780.000     -440333.400
  23525970.000     1562261.000    23525970.000     1205325.000
  24662760.000     1189670.000    24662760.000      923112.100
  20176160.000     -465884.600    20176160.000     -359118.000
  23563760.000     -128139.600    23563770.000      -97523.350
  21298150.000      904039.900    21298150.000      687237.700
  21634090.000    -1297098.000    21634090.000    -1002264.000
  24736160.000     1323943.000    24736170.000      993009.500
  20436400.000    -1163811.000    20436400.000     -429855.100
 11 11  3 15 35 22.0000000  0  9G01G03G06G11G14G19G20G22G32                                     
  20824400.000     -571222.700    20824410.000     -441851.200
  23527300.000     1569282.000    23527310.000     1210796.000
  24664010.000     1196237.000    24664010.000      928229.500
  20176100.000     -466186.000    20176100.000     -359352.800
  23563790.000     -127970.900    23563800.000      -97391.900
  21298860.000      907798.600    21298860.000      690166.600
  21633050.000    -1302559.000    21633050.000    -1006519.000
  24737420.000     1330551.000    24737420.000      998158.400
  20436030.000    -1165777.000    20436030.000     -431387.300
 11 11  3 15 35 23.0000000  0  9G01G03G06G11G14G19G20G22G32                                     
  20824220.000     -572196.500    20824220.000     -442610.000
  23527970.000     1572793.000    23527980.000     1213532.000
  24664630.000     1199521.000    24664640.000      930788.100
  20176070.000     -466336.400    20176070.000     -359470.000
  23563810.000     -127885.900    23563810.000      -97325.670
  21299220.000      909678.300    21299220.000      691631.300
  21632530.000    -1305289.000    21632530.000    -1008647.000
  24738050.000     1333854.000    24738050.000     1000733.000
  20435840.000    -1166759.000    20435840.000     -432152.900
 11 11  3 15 35 24.0000000  0  9G01G03G06G11G14G19G20G22G32                                     
  20824030.000     -573170.500    20824040.000     -443369.000
  23528640.000     1576303.000    23528640.000     1216267.000
  24665260.000     1202804.000    24665260.000      933346.500
  20176040.000     -466486.900    20176040.000     -359587.300
  23563830.000     -127800.800    23563830.000      -97259.330
  21299580.000      911558.000    21299580.000      693095.900
  21632010.000    -1308020.000    21632010.000    -1010774.000
  24738680.000     1337158.000    24738680.000     1003307.000
  20435650.000    -1167742.000    20435650.000     -432918.300
 11 11  3 15 35 25.0000000  0  9G01G03G06G11G14G19G20G22G32                                     
  20823850.000     -574144.000    20823850.000     -444127.500
  23529310.000     1579814.000    23529310.000     1219003.000
  24665880.000     1206088.000    24665890.000      935905.200
  20176010.000     -466636.800    20176010.000     -359704.100
  23563840.000     -127714.800    23563850.000      -97192.350
  21299940.000      913438.300    21299940.000      694561.100
  21631490.000    -1310749.000    21631490.000    -1012901.000
  24739310.000     1340462.000    24739310.000     1005881.000
  20435460.000    -1168723.000    20435470.000     -433683.100
 11 11  3 15 35 26.0000000  0  9G01G03G06G11G14G19G20G22G32                                     
  20823660.000     -575117.300    20823670.000     -444885.900
  23529980.000     1583325.000    23529980.000     1221739.000
  24666500.000     1209371.000    24666510.000      938464.100
  20175990.000     -466786.400    20175980.000     -359820.600
  23563860.000     -127628.300    23563860.000      -97124.880
  21300300.000      915319.000    21300300.000      696026.600
  21630970.000    -1313479.000    21630970.000    -1015028.000
  24739940.000     1343765.000    24739940.000     1008456.000
  20435280.000    -1169704.000    20435280.000     -434447.400
 11 11  3 15 35 28.0000000  0  9G01G03G06G11G14G19G20G22G32                                     
  20823290.000     -577063.000    20823300.000     -446402.100
  23531310.000     1590347.000    23531320.000     1227211.000
  24667750.000     1215940.000    24667760.000      943582.000
  20175930.000     -467084.300    20175930.000     -360052.800
  23563890.000     -127453.300    23563900.000      -96988.540
  21301010.000      919081.600    21301010.000      698958.600
  21629930.000    -1318936.000    21629940.000    -1019281.000
  24741190.000     1350373.000    24741200.000     1013605.000
  20434910.000    -1171664.000    20434910.000     -435974.600
 11 11  3 15 35 29.0000000  0  9G01G03G06G11G14G19G20G22G32                                     
  20823110.000     -578035.500    20823110.000     -447159.800
  23531980.000     1593859.000    23531990.000     1229947.000
  24668380.000     1219224.000    24668390.000      946141.200
  20175900.000     -467232.800    20175900.000     -360168.500
  23563910.000     -127364.900    23563910.000      -96919.660
  21301370.000      920963.600    21301370.000      700425.000
  21629410.000    -1321664.000    21629420.000    -1021406.000
  24741820.000     1353677.000    24741830.000     1016179.000
  20434720.000    -1172643.000    20434720.000     -436737.500
 11 11  3 15 35 31.0000000  0  9G01G03G06G11G14G19G20G22G32                                     
  20822740.000     -579978.900    20822740.000     -448674.200
  23533320.000     1600883.000    23533320.000     1235420.000
  24669630.000     1225794.000    24669640.000      951260.400
  20175850.000     -467527.800    20175840.000     -360398.400
  23563940.000     -127185.600    23563950.000      -96779.930
  21302090.000      924729.500    21302090.000      703359.500
  21628380.000    -1327118.000    21628380.000    -1025656.000
  24743080.000     1360287.000    24743080.000     1021329.000
  20434350.000    -1174598.000    20434350.000     -438261.200
 11 11  3 15 35 32.0000000  0  9G01G03G06G11G14G19G20G22G32                                     
  20822550.000     -580950.300    20822560.000     -449431.100
  23533990.000     1604395.000    23533990.000     1238157.000
  24670260.000     1229079.000    24670260.000      953820.100
  20175820.000     -467674.900    20175820.000     -360513.000
  23563960.000     -127095.100    23563960.000      -96709.430
  21302440.000      926612.900    21302440.000      704827.100
  21627860.000    -1329845.000    21627860.000    -1027781.000
  24743710.000     1363591.000    24743710.000     1023904.000
  20434160.000    -1175575.000    20434160.000     -439022.400
 11 11  3 15 35 33.0000000  0  9G01G03G06G11G14G19G20G22G32                                     
  20822370.000     -581921.700    20822370.000     -450188.000
  23534650.000     1607907.000    23534660.000     1240894.000
  24670880.000     1232364.000    24670890.000      956379.800
  20175790.000     -467821.800    20175790.000     -360627.500
  23563980.000     -127004.200    23563980.000      -96638.590
  21302800.000      928496.600    21302800.000      706294.900
  21627340.000    -1332571.000    21627340.000    -1029905.000
  24744340.000     1366896.000    24744340.000     1026479.000
  20433970.000    -1176552.000    20433980.000     -439783.200
 11 11  3 15 35 34.0000000  0  9G01G03G06G11G14G19G20G22G32                                     
  20822180.000     -582892.900    20822190.000     -450944.800
  23535320.000     1611419.000    23535330.000     1243630.000
  24671510.000     1235648.000    24671510.000      958939.400
  20175760.000     -467968.500    20175760.000     -360741.800
  23564000.000     -126912.900    23564000.000      -96567.420
  21303160.000      930380.500    21303160.000      707762.900
  21626820.000    -1335297.000    21626820.000    -1032029.000
  24744970.000     1370200.000    24744970.000     1029054.000
  20433790.000    -1177528.000    20433790.000     -440543.700
 11 11  3 15 35 35.0000000  0  9G01G03G06G11G14G19G20G22G32                                     
  20822000.000     -583863.800    20822000.000     -451701.400
  23535990.000     1614932.000    23536000.000     1246367.000
  24672130.000     1238934.000    24672140.000      961499.300
  20175730.000     -468114.700    20175730.000     -360855.700
  23564010.000     -126820.800    23564020.000      -96495.680
  21303520.000      932265.000    21303520.000      709231.300
  21626300.000    -1338023.000    21626300.000    -1034153.000
  24745600.000     1373505.000    24745600.000     1031630.000
  20433600.000    -1178503.000    20433600.000     -441303.600
 11 11  3 15 35 36.0000000  0  9G01G03G06G11G14G19G20G22G32                                     
  20821810.000     -584834.100    20821820.000     -452457.500
  23536660.000     1618445.000    23536660.000     1249105.000
  24672760.000     1242219.000    24672760.000      964059.400
  20175710.000     -468260.300    20175700.000     -360969.200
  23564030.000     -126727.900    23564030.000      -96423.260
  21303880.000      934150.100    21303880.000      710700.200
  21625780.000    -1340748.000    21625780.000    -1036277.000
  24746220.000     1376810.000    24746230.000     1034205.000
  20433420.000    -1179477.000    20433420.000     -442062.800
 11 11  3 15 35 37.0000000  0  9G01G03G06G11G14G19G20G22G32                                     
  20821630.000     -585804.000    20821630.000     -453213.200
  23537330.000     1621958.000    23537330.000     1251842.000
  24673380.000     1245505.000    24673390.000      966619.900
  20175680.000     -468405.300    20175680.000     -361082.200
  23564050.000     -126634.200    23564050.000      -96350.240
  21304240.000      936035.800    21304240.000      712169.600
  21625260.000    -1343472.000    21625270.000    -1038399.000
  24746850.000     1380116.000    24746860.000     1036780.000
  20433230.000    -1180451.000    20433230.000     -442821.400
 11 11  3 15 35 38.0000000  0  9G01G03G06G11G14G19G20G22G32                                     
  20821440.000     -586773.900    20821450.000     -453969.000
  23538000.000     1625471.000    23538000.000     1254580.000
  24674010.000     1248791.000    24674010.000      969180.200
  20175650.000     -468550.300    20175650.000     -361195.200
  23564070.000     -126540.200    23564070.000      -96276.980
  21304600.000      937921.700    21304600.000      713639.100
  21624750.000    -1346196.000    21624750.000    -1040522.000
  24747480.000     1383421.000    24747490.000     1039356.000
  20433050.000    -1181424.000    20433050.000     -443579.800
 11 11  3 15 35 39.0000000  0  9G01G03G06G11G14G19G20G22G32                                     
  20821260.000     -587743.600    20821260.000     -454724.600
  23538660.000     1628985.000    23538670.000     1257318.000
  24674630.000     1252077.000    24674640.000      971740.600
  20175620.000     -468694.900    20175620.000     -361307.800
  23564080.000     -126445.500    23564090.000      -96203.230
  21304960.000      939807.900    21304960.000      715108.900
  21624230.000    -1348920.000    21624230.000    -1042645.000
  24748110.000     1386726.000    24748110.000     1041931.000
  20432860.000    -1182397.000    20432860.000     -444337.600
 11 11  3 15 35 40.0000000  0  9G01G03G06G11G14G19G20G22G32                                     
  20821080.000     -588712.900    20821080.000     -455479.900
  23539330.000     1632498.000    23539340.000     1260055.000
  24675260.000     1255363.000    24675270.000      974301.300
  20175600.000     -468839.100    20175590.000     -361420.200
  23564100.000     -126350.200    23564110.000      -96128.920
  21305310.000      941694.700    21305310.000      716579.100
  21623710.000    -1351643.000    21623710.000    -1044767.000
  24748740.000     1390031.000    24748740.000     1044507.000
  20432680.000    -1183368.000    20432680.000     -445094.900
 11 11  3 15 35 41.0000000  0  9G01G03G06G11G14G19G20G22G32                                     
  20820890.000     -589682.000    20820890.000     -456235.100
  23540000.000     1636012.000    23540010.000     1262793.000
  24675880.000     1258649.000    24675890.000      976861.900
  20175570.000     -468983.000    20175570.000     -361532.300
  23564120.000     -126254.300    23564120.000      -96054.260
  21305670.000      943581.800    21305670.000      718049.600
  21623190.000    -1354366.000    21623190.000    -1046888.000
  24749370.000     1393337.000    24749370.000     1047083.000
  20432490.000    -1184340.000    20432490.000     -445851.800
 11 11  3 15 35 42.0000000  0  9G01G03G06G11G14G19G20G22G32                                     
  20820710.000     -590651.400    20820710.000     -456990.400
  23540670.000     1639525.000    23540680.000     1265531.000
  24676510.000     1261935.000    24676520.000      979422.400
  20175540.000     -469127.000    20175540.000     -361644.500
  23564140.000     -126158.300    23564140.000      -95979.450
  21306030.000      945468.800    21306030.000      719520.000
  21622670.000    -1357089.000    21622680.000    -1049010.000
  24750000.000     1396642.000    24750000.000     1049658.000
  20432310.000    -1185311.000    20432310.000     -446608.600
 11 11  3 15 35 43.0000000  0  9G01G03G06G11G14G19G20G22G32                                     
  20820520.000     -591620.200    20820530.000     -457745.300
  23541340.000     1643039.000    23541340.000     1268269.000
  24677130.000     1265221.000    24677140.000      981983.100
  20175510.000     -469270.400    20175510.000     -361756.200
  23564160.000     -126061.500    23564160.000      -95903.990
  21306390.000      947356.500    21306390.000      720990.900
  21622160.000    -1359812.000    21622160.000    -1051132.000
  24750630.000     1399947.000    24750630.000     1052234.000
  20432120.000    -1186281.000    20432120.000     -447364.600
 11 11  3 15 35 44.0000000  0  9G01G03G06G11G14G19G20G22G32                                     
  20820340.000     -592588.900    20820340.000     -458500.200
  23542010.000     1646553.000    23542010.000     1271007.000
  24677760.000     1268508.000    24677770.000      984543.800
  20175490.000     -469413.600    20175480.000     -361867.800
  23564180.000     -125964.200    23564180.000      -95828.170
  21306750.000      949244.400    21306750.000      722462.000
  21621640.000    -1362534.000    21621640.000    -1053253.000
  24751260.000     1403252.000    24751260.000     1054809.000
  20431940.000    -1187251.000    20431940.000     -448120.300
 11 11  3 15 35 45.0000000  0  9G01G03G06G11G14G19G20G22G32                                     
  20820150.000     -593557.500    20820160.000     -459254.900
  23542680.000     1650067.000    23542680.000     1273745.000
  24678380.000     1271794.000    24678390.000      987104.500
  20175460.000     -469556.500    20175460.000     -361979.200
  23564190.000     -125866.400    23564200.000      -95751.970
  21307110.000      951132.700    21307110.000      723933.400
  21621120.000    -1365256.000    21621120.000    -1055374.000
  24751880.000     1406558.000    24751890.000     1057385.000
  20431750.000    -1188220.000    20431760.000     -448875.600
 11 11  3 15 35 46.0000000  0  9G01G03G06G11G14G19G20G22G32                                     
  20819970.000     -594525.500    20819970.000     -460009.200
  23543350.000     1653581.000    23543350.000     1276484.000
  24679010.000     1275081.000    24679020.000      989665.600
  20175430.000     -469698.800    20175430.000     -362090.100
  23564210.000     -125767.800    23564220.000      -95675.100
  21307470.000      953021.600    21307470.000      725405.300
  21620600.000    -1367977.000    21620600.000    -1057494.000
  24752510.000     1409863.000    24752520.000     1059961.000
  20431570.000    -1189189.000    20431570.000     -449630.300
 11 11  3 15 35 47.0000000  0  9G01G03G06G11G14G19G20G22G32                                     
  20819790.000     -595493.100    20819790.000     -460763.200
  23544010.000     1657096.000    23544020.000     1279222.000
  24679630.000     1278368.000    24679640.000      992227.000
  20175400.000     -469840.500    20175400.000     -362200.500
  23564230.000     -125668.300    23564240.000      -95597.570
  21307830.000      954911.100    21307830.000      726877.600
  21620080.000    -1370697.000    21620090.000    -1059614.000
  24753140.000     1413169.000    24753150.000     1062537.000
  20431390.000    -1190156.000    20431390.000     -450384.300
 11 11  3 15 35 48.0000000  0  9G01G03G06G11G14G19G20G22G32                                     
  20819600.000     -596460.600    20819600.000     -461517.000
  23544680.000     1660611.000    23544690.000     1281961.000
  24680260.000     1281655.000    24680270.000      994788.300
  20175380.000     -469982.100    20175380.000     -362310.800
  23564250.000     -125568.300    23564250.000      -95519.690
  21308190.000      956800.900    21308190.000      728350.200
  21619570.000    -1373418.000    21619570.000    -1061734.000
  24753770.000     1416475.000    24753780.000     1065113.000
  20431200.000    -1191124.000    20431200.000     -451137.900
 11 11  3 15 35 49.0000000  0  9G01G03G06G11G14G19G20G22G32                                     
  20819420.000     -597427.800    20819420.000     -462270.800
  23545350.000     1664126.000    23545360.000     1284700.000
  24680890.000     1284942.000    24680890.000      997349.700
  20175350.000     -470123.300    20175350.000     -362420.800
  23564270.000     -125467.800    23564270.000      -95441.390
  21308550.000      958691.100    21308550.000      729823.000
  21619050.000    -1376137.000    21619050.000    -1063853.000
  24754400.000     1419781.000    24754400.000     1067689.000
  20431020.000    -1192090.000    20431020.000     -451891.000
 11 11  3 15 35 50.0000000  0  9G01G03G06G11G14G19G20G22G32                                     
  20819230.000     -598395.000    20819240.000     -463024.400
  23546020.000     1667641.000    23546030.000     1287439.000
  24681510.000     1288229.000    24681520.000      999911.100
  20175320.000     -470264.300    20175320.000     -362530.700
  23564290.000     -125366.900    23564290.000      -95362.750
  21308910.000      960581.400    21308910.000      731296.000
  21618530.000    -1378857.000    21618530.000    -1065972.000
  24755030.000     1423087.000    24755030.000     1070265.000
  20430830.000    -1193056.000    20430840.000     -452643.900
 11 11  3 15 35 51.0000000  0  9G01G03G06G11G14G19G20G22G32                                     
  20819050.000     -599362.000    20819050.000     -463777.900
  23546690.000     1671156.000    23546700.000     1290178.000
  24682140.000     1291516.000    24682150.000     1002473.000
  20175300.000     -470405.000    20175300.000     -362640.400
  23564310.000     -125265.400    23564310.000      -95283.650
  21309270.000      962472.200    21309270.000      732769.300
  21618010.000    -1381577.000    21618020.000    -1068091.000
  24755660.000     1426393.000    24755660.000     1072841.000
  20430650.000    -1194022.000    20430650.000     -453396.200
 11 11  3 15 35 53.0000000  0  9G01G03G06G11G14G19G20G22G32                                     
  20818680.000     -601295.300    20818680.000     -465284.300
  23548030.000     1678186.000    23548030.000     1295656.000
  24683390.000     1298091.000    24683400.000     1007596.000
  20175240.000     -470685.600    20175240.000     -362859.000
  23564350.000     -125060.900    23564350.000      -95124.240
  21309990.000      966254.700    21309990.000      735716.800
  21616980.000    -1387014.000    21616980.000    -1072328.000
  24756920.000     1433005.000    24756920.000     1077993.000
  20430280.000    -1195951.000    20430280.000     -454899.700
 11 11  3 15 35 54.0000000  0  9G01G03G06G11G14G19G20G22G32                                     
  20818500.000     -602261.700    20818500.000     -466037.400
  23548700.000     1681701.000    23548700.000     1298395.000
  24684010.000     1301379.000    24684020.000     1010157.000
  20175220.000     -470825.500    20175220.000     -362968.000
  23564370.000     -124957.800    23564370.000      -95043.960
  21310350.000      968146.400    21310350.000      737190.800
  21616460.000    -1389733.000    21616460.000    -1074447.000
  24757550.000     1436311.000    24757550.000     1080569.000
  20430100.000    -1196915.000    20430100.000     -455650.800
 11 11  3 15 35 55.0000000  0  9G01G03G06G11G14G19G20G22G32                                     
  20818310.000     -603227.900    20818320.000     -466790.200
  23549370.000     1685217.000    23549370.000     1301134.000
  24684640.000     1304666.000    24684650.000     1012719.000
  20175190.000     -470964.900    20175190.000     -363076.700
  23564390.000     -124854.200    23564390.000      -94963.160
  21310710.000      970038.600    21310710.000      738665.200
  21615940.000    -1392450.000    21615950.000    -1076564.000
  24758180.000     1439617.000    24758180.000     1083145.000
  20429920.000    -1197878.000    20429920.000     -456401.400
 11 11  3 15 35 56.0000000  0  9G01G03G06G11G14G19G20G22G32                                     
  20818130.000     -604193.300    20818130.000     -467542.500
  23550030.000     1688733.000    23550040.000     1303874.000
  24685260.000     1307954.000    24685270.000     1015281.000
  20175160.000     -471103.600    20175160.000     -363184.700
  23564410.000     -124749.400    23564410.000      -94881.530
  21311070.000      971931.600    21311070.000      740140.300
  21615430.000    -1395168.000    21615430.000    -1078682.000
  24758800.000     1442923.000    24758810.000     1085721.000
  20429730.000    -1198841.000    20429730.000     -457151.100
 11 11  3 15 35 57.0000000  0  9G01G03G06G11G14G19G20G22G32                                     
  20817950.000     -605158.000    20817950.000     -468294.200
  23550700.000     1692249.000    23550710.000     1306614.000
  24685890.000     1311243.000    24685900.000     1017844.000
  20175140.000     -471241.400    20175140.000     -363292.100
  23564430.000     -124643.600    23564430.000      -94799.110
  21311430.000      973825.500    21311430.000      741616.100
  21614910.000    -1397884.000    21614910.000    -1080798.000
  24759430.000     1446230.000    24759440.000     1088298.000
  20429550.000    -1199802.000    20429550.000     -457900.100
 11 11  3 15 35 58.0000000  0  9G01G03G06G11G14G19G20G22G32                                     
  20817760.000     -606122.300    20817770.000     -469045.600
  23551370.000     1695766.000    23551380.000     1309355.000
  24686520.000     1314532.000    24686530.000     1020407.000
  20175110.000     -471378.800    20175110.000     -363399.100
  23564450.000     -124537.100    23564450.000      -94716.100
  21311790.000      975720.000    21311790.000      743092.300
  21614390.000    -1400599.000    21614400.000    -1082914.000
  24760060.000     1449538.000    24760070.000     1090876.000
  20429370.000    -1200762.000    20429370.000     -458648.400
 11 11  3 15 35 59.0000000  0  9G01G03G06G11G14G19G20G22G32                                     
  20817580.000     -607086.500    20817580.000     -469796.900
  23552040.000     1699284.000    23552050.000     1312096.000
  24687140.000     1317821.000    24687150.000     1022970.000
  20175090.000     -471515.900    20175080.000     -363506.000
  23564470.000     -124430.100    23564470.000      -94632.710
  21312150.000      977614.700    21312150.000      744568.700
  21613880.000    -1403315.000    21613880.000    -1085030.000
  24760690.000     1452845.000    24760700.000     1093453.000
  20429190.000    -1201722.000    20429190.000     -459396.300
 11 11  3 15 36  0.0000000  0  9G01G03G06G11G14G19G20G22G32                                     
  20817400.000     -608050.700    20817400.000     -470548.300
  23552710.000     1702800.000    23552720.000     1314836.000
  24687770.000     1321110.000    24687780.000     1025532.000
  20175060.000     -471653.000    20175060.000     -363612.800
  23564490.000     -124322.800    23564490.000      -94549.120
  21312510.000      979509.500    21312510.000      746045.100
  21613360.000    -1406030.000    21613360.000    -1087146.000
  24761320.000     1456152.000    24761330.000     1096030.000
  20429000.000    -1202682.000    20429000.000     -460144.100
 11 11  3 15 36  1.0000000  0  9G01G03G06G11G14G19G20G22G32                                     
  20817210.000     -609014.700    20817220.000     -471299.500
  23553380.000     1706318.000    23553390.000     1317577.000
  24688390.000     1324399.000    24688400.000     1028095.000
  20175030.000     -471789.700    20175030.000     -363719.300
  23564510.000     -124214.900    23564510.000      -94465.060
  21312870.000      981404.700    21312870.000      747521.900
  21612840.000    -1408745.000    21612850.000    -1089261.000
  24761950.000     1459459.000    24761950.000     1098607.000
  20428820.000    -1203640.000    20428820.000     -460891.300
 11 11  3 15 36  2.0000000  0  9G01G03G06G11G14G19G20G22G32                                     
  20817030.000     -609978.500    20817030.000     -472050.400
  23554050.000     1709835.000    23554060.000     1320317.000
  24689020.000     1327689.000    24689030.000     1030658.000
  20175010.000     -471926.100    20175010.000     -363825.600
  23564530.000     -124106.500    23564530.000      -94380.540
  21313230.000      983300.300    21313230.000      748999.000
  21612330.000    -1411459.000    21612330.000    -1091377.000
  24762580.000     1462766.000    24762580.000     1101184.000
  20428640.000    -1204599.000    20428640.000     -461638.100
 11 11  3 15 36  3.0000000  0  9G01G03G06G11G14G19G20G22G32                                     
  20816850.000     -610942.500    20816850.000     -472801.600
  23554720.000     1713352.000    23554720.000     1323058.000
  24689650.000     1330977.000    24689650.000     1033221.000
  20174980.000     -472062.600    20174980.000     -363932.000
  23564550.000     -123997.900    23564550.000      -94295.940
  21313590.000      985195.800    21313590.000      750476.000
  21611810.000    -1414174.000    21611810.000    -1093492.000
  24763210.000     1466073.000    24763210.000     1103760.000
  20428460.000    -1205557.000    20428460.000     -462384.800
 11 11  3 15 36  5.0000000  0  9G01G03G06G11G14G19G20G22G32                                     
  20816480.000     -612869.000    20816480.000     -474302.800
  23556060.000     1720387.000    23556060.000     1328539.000
  24690900.000     1337556.000    24690910.000     1038347.000
  20174930.000     -472333.900    20174930.000     -364143.400
  23564590.000     -123778.200    23564590.000      -94124.760
  21314310.000      988988.700    21314310.000      753431.500
  21610780.000    -1419601.000    21610780.000    -1097721.000
  24764470.000     1472688.000    24764470.000     1108915.000
  20428090.000    -1207471.000    20428090.000     -463876.100
 11 11  3 15 36  6.0000000  0  9G01G03G06G11G14G19G20G22G32                                     
  20816300.000     -613831.500    20816300.000     -475052.800
  23556730.000     1723905.000    23556730.000     1331281.000
  24691520.000     1340846.000    24691530.000     1040911.000
  20174900.000     -472468.700    20174900.000     -364248.400
  23564610.000     -123667.200    23564620.000      -94038.220
  21314680.000      990886.100    21314680.000      754910.000
  21610260.000    -1422314.000    21610260.000    -1099835.000
  24765100.000     1475995.000    24765100.000     1111492.000
  20427910.000    -1208427.000    20427910.000     -464620.800
 11 11  3 15 36  7.0000000  0  9G01G03G06G11G14G19G20G22G32                                     
  20816110.000     -614794.000    20816120.000     -475802.800
  23557400.000     1727423.000    23557400.000     1334022.000
  24692150.000     1344136.000    24692160.000     1043474.000
  20174880.000     -472603.300    20174880.000     -364353.300
  23564630.000     -123555.700    23564640.000      -93951.390
  21315040.000      992783.700    21315040.000      756388.700
  21609750.000    -1425027.000    21609750.000    -1101948.000
  24765730.000     1479303.000    24765730.000     1114069.000
  20427730.000    -1209382.000    20427730.000     -465365.200
 11 11  3 15 36  8.0000000  0  9G01G03G06G11G14G19G20G22G32                                     
  20815930.000     -615756.600    20815930.000     -476552.900
  23558070.000     1730941.000    23558070.000     1336763.000
  24692780.000     1347426.000    24692790.000     1046038.000
  20174850.000     -472738.000    20174850.000     -364458.200
  23564660.000     -123444.100    23564660.000      -93864.380
  21315400.000      994681.300    21315400.000      757867.400
  21609230.000    -1427739.000    21609230.000    -1104062.000
  24766360.000     1482610.000    24766360.000     1116646.000
  20427550.000    -1210337.000    20427550.000     -466109.400
 11 11  3 15 36  9.0000000  0  9G01G03G06G11G14G19G20G22G32                                     
  20815750.000     -616719.000    20815750.000     -477302.800
  23558740.000     1734459.000    23558740.000     1339505.000
  24693400.000     1350715.000    24693410.000     1048601.000
  20174830.000     -472872.300    20174830.000     -364562.900
  23564680.000     -123331.800    23564680.000      -93776.900
  21315760.000      996579.400    21315760.000      759346.300
  21608710.000    -1430451.000    21608710.000    -1106175.000
  24766990.000     1485918.000    24766990.000     1119224.000
  20427360.000    -1211292.000    20427370.000     -466853.100
 11 11  3 15 36 10.0000000  0  9G01G03G06G11G14G19G20G22G32                                     
  20815560.000     -617681.100    20815570.000     -478052.500
  23559410.000     1737977.000    23559410.000     1342246.000
  24694030.000     1354005.000    24694040.000     1051165.000
  20174800.000     -473006.200    20174800.000     -364667.300
  23564700.000     -123219.000    23564700.000      -93688.950
  21316120.000      998477.800    21316120.000      760825.600
  21608200.000    -1433163.000    21608200.000    -1108288.000
  24767620.000     1489225.000    24767620.000     1121801.000
  20427180.000    -1212245.000    20427180.000     -467596.400
 11 11  3 15 36 11.0000000  0  9G01G03G06G11G14G19G20G22G32                                     
  20815380.000     -618643.100    20815380.000     -478802.100
  23560070.000     1741495.000    23560080.000     1344987.000
  24694650.000     1357295.000    24694660.000     1053728.000
  20174780.000     -473140.000    20174780.000     -364771.500
  23564720.000     -123105.700    23564720.000      -93600.670
  21316480.000     1000376.000    21316480.000      762305.100
  21607680.000    -1435874.000    21607680.000    -1110401.000
  24768250.000     1492532.000    24768250.000     1124378.000
  20427000.000    -1213199.000    20427000.000     -468339.300
 11 11  3 15 36 12.0000000  0  9G01G03G06G11G14G19G20G22G32                                     
  20815200.000     -619604.800    20815200.000     -479551.400
  23560740.000     1745013.000    23560750.000     1347729.000
  24695280.000     1360585.000    24695290.000     1056292.000
  20174750.000     -473273.300    20174750.000     -364875.300
  23564740.000     -122991.700    23564740.000      -93511.850
  21316840.000     1002276.000    21316840.000      763785.000
  21607170.000    -1438585.000    21607170.000    -1112514.000
  24768870.000     1495840.000    24768880.000     1126955.000
  20426820.000    -1214151.000    20426820.000     -469081.600
 11 11  3 15 36 13.0000000  0  9G01G03G06G11G14G19G20G22G32                                     
  20815010.000     -620566.100    20815020.000     -480300.600
  23561410.000     1748532.000    23561420.000     1350471.000
  24695910.000     1363875.000    24695920.000     1058856.000
  20174730.000     -473406.100    20174730.000     -364978.900
  23564760.000     -122877.000    23564770.000      -93422.510
  21317200.000     1004175.000    21317200.000      765265.200
  21606650.000    -1441296.000    21606650.000    -1114626.000
  24769500.000     1499148.000    24769510.000     1129533.000
  20426640.000    -1215103.000    20426640.000     -469823.400
 11 11  3 15 36 14.0000000  0  9G01G03G06G11G14G19G20G22G32                                     
  20814830.000     -621527.300    20814830.000     -481049.500
  23562080.000     1752051.000    23562090.000     1353213.000
  24696530.000     1367166.000    24696540.000     1061419.000
  20174700.000     -473538.800    20174700.000     -365082.200
  23564790.000     -122761.900    23564790.000      -93332.790
  21317570.000     1006075.000    21317570.000      766745.700
  21606130.000    -1444006.000    21606140.000    -1116738.000
  24770130.000     1502455.000    24770140.000     1132110.000
  20426460.000    -1216055.000    20426460.000     -470564.900
 11 11  3 15 36 15.0000000  0  9G01G03G06G11G14G19G20G22G32                                     
  20814650.000     -622488.600    20814650.000     -481798.600
  23562750.000     1755569.000    23562760.000     1355954.000
  24697160.000     1370456.000    24697170.000     1063983.000
  20174680.000     -473671.300    20174670.000     -365185.500
  23564810.000     -122646.400    23564810.000      -93242.810
  21317930.000     1007975.000    21317930.000      768226.200
  21605620.000    -1446716.000    21605620.000    -1118849.000
  24770760.000     1505763.000    24770770.000     1134688.000
  20426280.000    -1217006.000    20426280.000     -471306.000
 11 11  3 15 36 16.0000000  0  9G01G03G06G11G14G19G20G22G32                                     
  20814470.000     -623448.900    20814470.000     -482546.900
  23563420.000     1759089.000    23563430.000     1358697.000
  24697790.000     1373747.000    24697790.000     1066548.000
  20174650.000     -473802.900    20174650.000     -365288.100
  23564830.000     -122529.800    23564830.000      -93151.910
  21318290.000     1009876.000    21318290.000      769707.600
  21605100.000    -1449425.000    21605100.000    -1120960.000
  24771390.000     1509071.000    24771400.000     1137265.000
  20426100.000    -1217956.000    20426100.000     -472046.200
 11 11  3 15 36 17.0000000  0  9G01G03G06G11G14G19G20G22G32                                     
  20814280.000     -624408.700    20814290.000     -483294.800
  23564090.000     1762608.000    23564100.000     1361439.000
  24698410.000     1377038.000    24698420.000     1069112.000
  20174630.000     -473933.800    20174620.000     -365390.100
  23564850.000     -122412.200    23564850.000      -93060.280
  21318650.000     1011778.000    21318650.000      771189.500
  21604590.000    -1452134.000    21604590.000    -1123071.000
  24772020.000     1512380.000    24772030.000     1139843.000
  20425920.000    -1218905.000    20425920.000     -472785.700
 11 11  3 15 36 18.0000000  0  9G01G03G06G11G14G19G20G22G32                                     
  20814100.000     -625368.800    20814100.000     -484042.900
  23564760.000     1766128.000    23564770.000     1364182.000
  24699040.000     1380329.000    24699050.000     1071677.000
  20174600.000     -474065.000    20174600.000     -365492.300
  23564870.000     -122294.600    23564880.000      -92968.640
  21319010.000     1013680.000    21319010.000      772671.200
  21604070.000    -1454842.000    21604070.000    -1125181.000
  24772650.000     1515688.000    24772650.000     1142421.000
  20425730.000    -1219854.000    20425740.000     -473525.100
 11 11  3 15 36 19.0000000  0  9G01G03G06G11G14G19G20G22G32                                     
  20813920.000     -626328.600    20813920.000     -484790.800
  23565430.000     1769647.000    23565440.000     1366924.000
  24699660.000     1383620.000    24699670.000     1074241.000
  20174580.000     -474195.600    20174570.000     -365594.100
  23564900.000     -122176.300    23564900.000      -92876.430
  21319380.000     1015582.000    21319370.000      774153.400
  21603560.000    -1457550.000    21603560.000    -1127291.000
  24773280.000     1518996.000    24773280.000     1144999.000
  20425550.000    -1220802.000    20425560.000     -474264.000
 11 11  3 15 36 20.0000000  0  9G01G03G06G11G14G19G20G22G32                                     
  20813730.000     -627287.500    20813740.000     -485538.000
  23566100.000     1773168.000    23566110.000     1369668.000
  24700290.000     1386912.000    24700300.000     1076806.000
  20174550.000     -474325.400    20174550.000     -365695.200
  23564920.000     -122056.800    23564920.000      -92783.330
  21319740.000     1017485.000    21319740.000      775636.400
  21603040.000    -1460257.000    21603040.000    -1129401.000
  24773910.000     1522305.000    24773910.000     1147577.000
  20425370.000    -1221749.000    20425380.000     -475002.000
 11 11  3 15 36 21.0000000  0  9G01G03G06G11G14G19G20G22G32                                     
  20813550.000     -628246.200    20813560.000     -486285.000
  23566770.000     1776688.000    23566780.000     1372411.000
  24700920.000     1390204.000    24700930.000     1079371.000
  20174530.000     -474454.800    20174530.000     -365796.000
  23564940.000     -121936.700    23564950.000      -92689.790
  21320100.000     1019388.000    21320100.000      777119.600
  21602530.000    -1462964.000    21602530.000    -1131510.000
  24774540.000     1525614.000    24774540.000     1150156.000
  20425190.000    -1222696.000    20425200.000     -475739.400
 11 11  3 15 36 23.0000000  0  9G01G03G06G11G14G19G20G22G32                                     
  20813190.000     -630163.400    20813190.000     -487778.900
  23568110.000     1783729.000    23568120.000     1377897.000
  24702170.000     1396788.000    24702180.000     1084502.000
  20174480.000     -474713.100    20174480.000     -365997.300
  23564990.000     -121695.400    23564990.000      -92501.730
  21320820.000     1023196.000    21320820.000      780086.600
  21601500.000    -1468377.000    21601500.000    -1135728.000
  24775800.000     1532232.000    24775800.000     1155313.000
  20424830.000    -1224587.000    20424840.000     -477213.400
 11 11  3 15 36 24.0000000  0  8G01G03G06G11G14G19G20G32                                        
  20813010.000     -631121.000    20813010.000     -488525.100
  23568780.000     1787251.000    23568790.000     1380641.000
  24702800.000     1400081.000    24702810.000     1087067.000
  20174450.000     -474841.100    20174450.000     -366097.100
  23565010.000     -121573.200    23565010.000      -92406.540
  21321190.000     1025101.000    21321190.000      781571.000
  21600980.000    -1471082.000    21600980.000    -1137835.000
  20424650.000    -1225532.000    20424660.000     -477949.200
 11 11  3 15 36 25.0000000  0  8G01G03G06G11G14G19G20G32                                        
  20812820.000     -632077.800    20812830.000     -489270.700
  23569450.000     1790773.000    23569460.000     1383386.000
  24703420.000     1403374.000    24703430.000     1089634.000
  20174430.000     -474968.300    20174430.000     -366196.200
  23565030.000     -121449.900    23565040.000      -92310.460
  21321550.000     1027007.000    21321550.000      783056.100
  21600470.000    -1473786.000    21600470.000    -1139943.000
  20424470.000    -1226475.000    20424480.000     -478684.100
 11 11  3 15 36 26.0000000  0  8G01G03G06G11G14G19G20G32                                        
  20812640.000     -633034.700    20812640.000     -490016.400
  23570120.000     1794295.000    23570130.000     1386130.000
  24704050.000     1406667.000    24704060.000     1092200.000
  20174400.000     -475095.400    20174400.000     -366295.200
  23565060.000     -121326.400    23565060.000      -92214.190
  21321910.000     1028913.000    21321910.000      784541.300
  21599950.000    -1476490.000    21599950.000    -1142050.000
  20424300.000    -1227418.000    20424300.000     -479418.800
 11 11  3 15 36 27.0000000  0  8G01G03G06G11G14G19G20G32                                        
  20812460.000     -633991.900    20812460.000     -490762.200
  23570790.000     1797816.000    23570800.000     1388874.000
  24704680.000     1409960.000    24704690.000     1094765.000
  20174380.000     -475222.700    20174380.000     -366394.400
  23565080.000     -121202.800    23565080.000      -92117.890
  21322270.000     1030819.000    21322270.000      786026.400
  21599440.000    -1479194.000    21599440.000    -1144157.000
  20424120.000    -1228360.000    20424120.000     -480153.500
 11 11  3 15 36 28.0000000  0  8G01G03G06G11G14G19G20G32                                        
  20812280.000     -634949.100    20812280.000     -491508.000
  23571460.000     1801338.000    23571470.000     1391618.000
  24705300.000     1413253.000    24705310.000     1097331.000
  20174360.000     -475349.800    20174360.000     -366493.400
  23565110.000     -121078.800    23565110.000      -92021.250
  21322640.000     1032725.000    21322640.000      787511.600
  21598920.000    -1481898.000    21598920.000    -1146264.000
  20423940.000    -1229303.000    20423940.000     -480887.800
 11 11  3 15 36 29.0000000  0  8G01G03G06G11G14G19G20G32                                        
  20812090.000     -635906.000    20812100.000     -492253.700
  23572130.000     1804859.000    23572140.000     1394362.000
  24705930.000     1416546.000    24705940.000     1099897.000
  20174330.000     -475476.600    20174330.000     -366592.200
  23565130.000     -120954.200    23565130.000      -91924.160
  21323000.000     1034631.000    21323000.000      788997.200
  21598410.000    -1484602.000    21598410.000    -1148371.000
  20423760.000    -1230244.000    20423760.000     -481621.600
 11 11  3 15 36 30.0000000  0  8G01G03G06G11G14G19G20G32                                        
  20811910.000     -636862.800    20811920.000     -492999.300
  23572800.000     1808381.000    23572810.000     1397106.000
  24706560.000     1419839.000    24706570.000     1102463.000
  20174310.000     -475603.200    20174310.000     -366690.900
  23565150.000     -120829.200    23565160.000      -91826.730
  21323360.000     1036538.000    21323360.000      790482.900
  21597890.000    -1487306.000    21597900.000    -1150477.000
  20423580.000    -1231186.000    20423580.000     -482355.100
 11 11  3 15 36 31.0000000  0  8G01G03G06G11G14G19G20G32                                        
  20811730.000     -637819.400    20811730.000     -493744.700
  23573470.000     1811903.000    23573480.000     1399851.000
  24707180.000     1423131.000    24707190.000     1105029.000
  20174280.000     -475729.500    20174280.000     -366789.300
  23565180.000     -120703.600    23565180.000      -91728.910
  21323730.000     1038445.000    21323730.000      791968.900
  21597380.000    -1490009.000    21597380.000    -1152584.000
  20423400.000    -1232126.000    20423400.000     -483088.100
 11 11  3 15 36 32.0000000  0  8G01G03G06G11G14G19G20G32                                        
  20811550.000     -638776.000    20811550.000     -494490.000
  23574140.000     1815425.000    23574150.000     1402595.000
  24707810.000     1426424.000    24707820.000     1107595.000
  20174260.000     -475855.600    20174260.000     -366887.600
  23565200.000     -120577.700    23565200.000      -91630.750
  21324090.000     1040352.000    21324090.000      793455.100
  21596870.000    -1492712.000    21596870.000    -1154690.000
  20423220.000    -1233067.000    20423220.000     -483820.800
 11 11  3 15 36 33.0000000  0  8G01G03G06G11G14G19G20G32                                        
  20811370.000     -639732.500    20811370.000     -495235.400
  23574810.000     1818946.000    23574820.000     1405339.000
  24708440.000     1429717.000    24708450.000     1110160.000
  20174240.000     -475981.600    20174240.000     -366985.700
  23565220.000     -120451.300    23565230.000      -91532.290
  21324450.000     1042260.000    21324450.000      794941.400
  21596350.000    -1495414.000    21596350.000    -1156796.000
  20423040.000    -1234007.000    20423040.000     -484553.300
 11 11  3 15 36 34.0000000  0  8G01G03G06G11G14G19G20G32                                        
  20811180.000     -640688.500    20811190.000     -495980.300
  23575480.000     1822468.000    23575490.000     1408083.000
  24709060.000     1433010.000    24709070.000     1112726.000
  20174210.000     -476106.900    20174210.000     -367083.400
  23565250.000     -120324.100    23565250.000      -91433.150
  21324810.000     1044168.000    21324810.000      796428.200
  21595840.000    -1498116.000    21595840.000    -1158901.000
  20422860.000    -1234946.000    20422860.000     -485285.000
 11 11  3 15 36 35.0000000  0  8G01G03G06G11G14G19G20G32                                        
  20811000.000     -641644.000    20811010.000     -496724.900
  23576150.000     1825991.000    23576160.000     1410828.000
  24709690.000     1436304.000    24709700.000     1115293.000
  20174190.000     -476231.800    20174190.000     -367180.700
  23565270.000     -120196.100    23565280.000      -91333.390
  21325180.000     1046077.000    21325180.000      797915.500
  21595320.000    -1500818.000    21595320.000    -1161006.000
  20422680.000    -1235884.000    20422690.000     -486016.000
 11 11  3 15 36 36.0000000  0  8G01G03G06G11G14G19G20G32                                        
  20810820.000     -642599.400    20810820.000     -497469.400
  23576820.000     1829513.000    23576830.000     1413573.000
  24710320.000     1439597.000    24710330.000     1117859.000
  20174160.000     -476356.400    20174160.000     -367277.800
  23565300.000     -120067.600    23565300.000      -91233.310
  21325540.000     1047985.000    21325540.000      799403.000
  21594810.000    -1503519.000    21594810.000    -1163111.000
  20422510.000    -1236822.000    20422510.000     -486746.800
 11 11  3 15 36 37.0000000  0  8G01G03G06G11G14G19G20G32                                        
  20810640.000     -643554.400    20810640.000     -498213.500
  23577490.000     1833036.000    23577500.000     1416318.000
  24710940.000     1442891.000    24710950.000     1120426.000
  20174140.000     -476480.400    20174140.000     -367374.400
  23565320.000     -119938.300    23565330.000      -91132.520
  21325900.000     1049895.000    21325900.000      800891.000
  21594290.000    -1506219.000    21594300.000    -1165215.000
  20422330.000    -1237759.000    20422330.000     -487476.800
 11 11  3 15 36 38.0000000  0  8G01G03G06G11G14G19G20G32                                        
  20810460.000     -644508.700    20810460.000     -498957.100
  23578170.000     1836559.000    23578170.000     1419063.000
  24711570.000     1446185.000    24711580.000     1122993.000
  20174120.000     -476603.800    20174120.000     -367470.600
  23565350.000     -119808.100    23565350.000      -91031.070
  21326270.000     1051805.000    21326270.000      802379.600
  21593780.000    -1508919.000    21593780.000    -1167319.000
  20422150.000    -1238695.000    20422150.000     -488206.200
 11 11  3 15 36 39.0000000  0  8G01G03G06G11G14G19G20G32                                        
  20810280.000     -645463.300    20810280.000     -499700.900
  23578840.000     1840082.000    23578840.000     1421809.000
  24712200.000     1449480.000    24712210.000     1125559.000
  20174090.000     -476727.200    20174090.000     -367566.700
  23565370.000     -119677.700    23565370.000      -90929.460
  21326630.000     1053716.000    21326630.000      803868.100
  21593270.000    -1511619.000    21593270.000    -1169423.000
  20421970.000    -1239630.000    20421970.000     -488935.300
 11 11  3 15 36 40.0000000  0  8G01G03G06G11G14G19G20G32                                        
  20810090.000     -646417.700    20810100.000     -500444.600
  23579510.000     1843606.000    23579510.000     1424554.000
  24712820.000     1452774.000    24712830.000     1128126.000
  20174070.000     -476850.400    20174070.000     -367662.700
  23565400.000     -119546.800    23565400.000      -90827.460
  21327000.000     1055626.000    21326990.000      805356.900
  21592750.000    -1514319.000    21592760.000    -1171527.000
  20421790.000    -1240566.000    20421790.000     -489664.100
 11 11  3 15 36 41.0000000  0  8G01G03G06G11G14G19G20G32                                        
  20809910.000     -647371.900    20809920.000     -501188.200
  23580180.000     1847129.000    23580180.000     1427299.000
  24713450.000     1456068.000    24713460.000     1130693.000
  20174050.000     -476973.300    20174050.000     -367758.500
  23565420.000     -119415.400    23565420.000      -90725.080
  21327360.000     1057537.000    21327360.000      806845.900
  21592240.000    -1517018.000    21592240.000    -1173630.000
  20421620.000    -1241500.000    20421620.000     -490392.500
 11 11  3 15 36 42.0000000  0  8G01G03G06G11G14G19G20G32                                        
  20809730.000     -648325.900    20809730.000     -501931.500
  23580850.000     1850652.000    23580850.000     1430045.000
  24714080.000     1459362.000    24714090.000     1133260.000
  20174020.000     -477095.800    20174020.000     -367854.000
  23565450.000     -119283.400    23565450.000      -90622.220
  21327720.000     1059448.000    21327720.000      808335.200
  21591730.000    -1519717.000    21591730.000    -1175733.000
  20421440.000    -1242435.000    20421440.000     -491120.400
 11 11  3 15 36 43.0000000  0  8G01G03G06G11G14G19G20G32                                        
  20809550.000     -649279.500    20809550.000     -502674.600
  23581520.000     1854176.000    23581520.000     1432790.000
  24714700.000     1462656.000    24714710.000     1135827.000
  20174000.000     -477217.900    20174000.000     -367949.100
  23565470.000     -119150.700    23565470.000      -90518.790
  21328090.000     1061360.000    21328090.000      809824.900
  21591210.000    -1522415.000    21591210.000    -1177835.000
  20421260.000    -1243368.000    20421260.000     -491847.700
 11 11  3 15 36 44.0000000  0  8G01G03G06G11G14G19G20G32                                        
  20809370.000     -650233.000    20809370.000     -503417.600
  23582190.000     1857699.000    23582190.000     1435536.000
  24715330.000     1465951.000    24715340.000     1138394.000
  20173980.000     -477339.800    20173980.000     -368044.100
  23565500.000     -119017.600    23565500.000      -90415.040
  21328450.000     1063272.000    21328450.000      811314.800
  21590700.000    -1525113.000    21590700.000    -1179938.000
  20421080.000    -1244301.000    20421080.000     -492574.700
 11 11  3 15 36 45.0000000  0  8G01G03G06G11G14G19G20G32                                        
  20809190.000     -651186.400    20809190.000     -504160.500
  23582860.000     1861223.000    23582860.000     1438282.000
  24715960.000     1469245.000    24715970.000     1140961.000
  20173950.000     -477461.400    20173950.000     -368138.800
  23565520.000     -118883.900    23565530.000      -90310.880
  21328810.000     1065185.000    21328810.000      812805.000
  21590190.000    -1527811.000    21590190.000    -1182040.000
  20420910.000    -1245233.000    20420910.000     -493301.300
 11 11  3 15 36 46.0000000  0  8G01G03G06G11G14G19G20G32                                        
  20809010.000     -652139.000    20809010.000     -504902.800
  23583530.000     1864748.000    23583540.000     1441028.000
  24716590.000     1472541.000    24716590.000     1143529.000
  20173930.000     -477582.200    20173930.000     -368232.900
  23565550.000     -118749.100    23565550.000      -90205.880
  21329180.000     1067098.000    21329180.000      814295.800
  21589670.000    -1530508.000    21589670.000    -1184141.000
  20420730.000    -1246165.000    20420730.000     -494027.000
 11 11  3 15 36 47.0000000  0  8G01G03G06G11G14G19G20G32                                        
  20808820.000     -653091.200    20808830.000     -505644.700
  23584200.000     1868272.000    23584210.000     1443775.000
  24717210.000     1475836.000    24717220.000     1146097.000
  20173910.000     -477702.400    20173910.000     -368326.700
  23565570.000     -118613.600    23565580.000      -90100.290
  21329540.000     1069012.000    21329540.000      815787.100
  21589160.000    -1533204.000    21589160.000    -1186242.000
  20420550.000    -1247095.000    20420550.000     -494752.100
 11 11  3 15 36 48.0000000  0  8G01G03G06G11G14G19G20G32                                        
  20808640.000     -654043.100    20808650.000     -506386.500
  23584870.000     1871797.000    23584880.000     1446521.000
  24717840.000     1479132.000    24717850.000     1148665.000
  20173890.000     -477822.300    20173880.000     -368420.100
  23565600.000     -118477.500    23565600.000      -89994.230
  21329910.000     1070926.000    21329910.000      817278.700
  21588650.000    -1535900.000    21588650.000    -1188343.000
  20420370.000    -1248025.000    20420380.000     -495476.700
 11 11  3 15 36 49.0000000  0  8G01G03G06G11G14G19G20G32                                        
  20808460.000     -654995.000    20808470.000     -507128.200
  23585540.000     1875322.000    23585550.000     1449268.000
  24718470.000     1482427.000    24718480.000     1151233.000
  20173860.000     -477942.100    20173860.000     -368513.400
  23565630.000     -118341.000    23565630.000      -89887.860
  21330270.000     1072840.000    21330270.000      818770.500
  21588130.000    -1538596.000    21588140.000    -1190444.000
  20420200.000    -1248955.000    20420200.000     -496201.000
 11 11  3 15 36 50.0000000  0  8G01G03G06G11G14G19G20G32                                        
  20808280.000     -655946.500    20808280.000     -507869.700
  23586210.000     1878847.000    23586220.000     1452015.000
  24719090.000     1485723.000    24719100.000     1153801.000
  20173840.000     -478061.400    20173840.000     -368606.300
  23565650.000     -118203.800    23565650.000      -89780.950
  21330640.000     1074755.000    21330630.000      820262.600
  21587620.000    -1541291.000    21587620.000    -1192544.000
  20420020.000    -1249883.000    20420020.000     -496924.700
 11 11  3 15 36 51.0000000  0  8G01G03G06G11G14G19G20G32                                        
  20808100.000     -656898.200    20808100.000     -508611.200
  23586880.000     1882372.000    23586890.000     1454761.000
  24719720.000     1489018.000    24719730.000     1156369.000
  20173820.000     -478180.700    20173820.000     -368699.300
  23565680.000     -118066.400    23565680.000      -89673.880
  21331000.000     1076670.000    21331000.000      821754.800
  21587110.000    -1543986.000    21587110.000    -1194644.000
  20419840.000    -1250812.000    20419840.000     -497648.300
